time, fix, sats, latitute, longitude, sonar, alt, gps_alt, speed, CRS, roll, pitch, yaw
0, 1, 9, 59.9632190, 10.7357400, 0, 196.15, 180.96, 0.14, 61.81, -728, -134, 17909
1000, 1, 9, 59.9632190, 10.7357440, 0, 196.15, 181.3, 0.21, 67.23, -731, -158, 17899
2000, 1, 9, 59.9632190, 10.7357450, 0, 196.32, 181.66, 0.28, 73.74, -732, -181, 17898
3000, 1, 9, 59.9632190, 10.7357530, 0, 196.41, 182.04, 0.23, 78.6, -732, -155, 17898
4000, 1, 9, 59.9632190, 10.7357560, 0, 196.41, 182.45, 0.24, 80.29, -732, -148, 17898
5000, 1, 9, 59.9632190, 10.7357610, 0, 196.06, 182.85, 0.27, 83.16, -732, -162, 17898
6000, 1, 9, 59.9632190, 10.7357660, 0, 196.15, 183.24, 0.29, 86.18, -731, -162, 17898
7000, 1, 9, 59.9632190, 10.7357710, 0, 196.23, 183.66, 0.28, 86.51, -732, -153, 17898
8000, 1, 9, 59.9632190, 10.7357760, 0, 196.15, 184.05, 0.21, 84.97, -732, -130, 17898
9000, 1, 9, 59.9632190, 10.7357800, 0, 196.32, 184.47, 0.22, 83.85, -734, -140, 17897
10000, 1, 9, 59.9632190, 10.7357850, 0, 196.41, 184.92, 0.22, 82.63, -14, -71, 18152
11000, 1, 9, 59.9632190, 10.7357900, 0, 196.15, 185.36, 0.28, 80.85, 57, -88, 18503
12000, 1, 9, 59.9632260, 10.7357950, 0, 196.15, 185.83, 0.3, 72.99, -608, -47, 21273
13000, 1, 9, 59.9632260, 10.7358050, 0, 196.15, 186.66, 0.14, 69.78, 298, 287, 21518
14000, 1, 9, 59.9632260, 10.7358150, 0, 196.15, 187.19, 0.14, 76.91, -184, 39, 16162
15000, 1, 9, 59.9632190, 10.7358260, 0, 196.32, 187.42, 0.4, 93.09, -231, -68, 18229
16000, 1, 9, 59.9632110, 10.7358160, 0, 196.23, 186.34, 0.34, 107.18, -178, 137, 20240
17000, 1, 9, 59.9632000, 10.7358090, 0, 196.15, 185.58, 0.22, 115.42, -58, 258, 20414
18000, 1, 9, 59.9631920, 10.7358040, 0, 196.15, 185.38, 0.14, 120.85, -237, 244, 18455
19000, 1, 8, 59.9631880, 10.7357990, 0, 196.15, 185.18, 0.09, 128.12, -381, 660, 19569
20000, 1, 9, 59.9631810, 10.7357990, 0, 196.23, 185.11, 0.24, 144.46, 156, 79, 17920
21000, 1, 9, 59.9631690, 10.7357990, 0, 196.32, 185.38, 0.48, 163.73, 330, 105, 19965
22000, 1, 9, 59.9631610, 10.7357960, 0, 195.97, 185.51, 1.06, 172.34, -56, 87, 15987
23000, 1, 10, 59.9631500, 10.7357990, 0, 195.97, 185.67, 1.89, 169.62, 479, -223, 17664
24000, 1, 10, 59.9631230, 10.7357880, 0, 196.15, 185.86, 1.82, 169.3, 174, 21, 17342
25000, 1, 10, 59.9631040, 10.7357950, 0, 196.32, 185.99, 2.47, 166.97, 103, -111, 17212
26000, 1, 10, 59.9630850, 10.7358150, 0, 196.32, 186.11, 3.02, 163.08, 268, -671, 17001
27000, 1, 10, 59.9630580, 10.7358300, 0, 196.23, 186.07, 2.71, 158.45, -134, -333, 15255
28000, 1, 10, 59.9630390, 10.7358490, 0, 195.97, 186, 1.83, 153.59, 231, -370, 14473
29000, 1, 10, 59.9630320, 10.7358700, 0, 195.89, 186.01, 1.07, 129.9, -528, -82, 17644
30000, 1, 10, 59.9630280, 10.7358810, 0, 196.06, 186.03, 0.2, 123.7, 157, 321, 16067
31000, 1, 10, 59.9630280, 10.7358870, 0, 196.15, 186.06, 0.1, 332.65, 307, 235, 16533
32000, 1, 10, 59.9630280, 10.7358800, 0, 196.15, 186.14, 0.51, 149.31, 633, -148, 17472
33000, 1, 10, 59.9630320, 10.7358710, 0, 196.15, 186.24, 0.45, 154.37, 814, -278, 18506
34000, 1, 10, 59.9630280, 10.7358600, 0, 195.8, 186.38, 0.45, 163.45, 788, -219, 18797
35000, 1, 10, 59.9630280, 10.7358560, 0, 195.97, 186.48, 0.46, 189.07, 1094, -367, 19640
36000, 1, 10, 59.9630280, 10.7358660, 0, 196.06, 186.75, 0.32, 213.37, 1337, -487, 19939
37000, 1, 10, 59.9630390, 10.7358730, 0, 196.06, 187.14, 0.29, 235.11, 1600, -866, 20409
38000, 1, 10, 59.9630470, 10.7358810, 0, 196.15, 187.5, 0.26, 261.14, 1565, -759, 20424
39000, 1, 10, 59.9630550, 10.7358680, 0, 196.23, 188.08, 0.21, 280.28, 1782, -988, 20133
40000, 1, 10, 59.9630660, 10.7358530, 0, 195.97, 188.76, 0.21, 290.61, 1764, -889, 19909
41000, 1, 10, 59.9630660, 10.7358480, 0, 195.8, 189.1, 0.21, 296.22, 1646, 579, 14911
42000, 1, 9, 59.9630660, 10.7358450, 0, 195.97, 189.26, 0.14, 296.76, 534, 357, 13108
43000, 1, 9, 59.9630660, 10.7358440, 0, 196.15, 189.41, 0.17, 295.2, -515, -167, 11261
44000, 1, 8, 59.9630660, 10.7358400, 0, 196.15, 189.55, 0.15, 297.43, -1443, -1196, 9771
45000, 1, 10, 59.9630660, 10.7358360, 0, 196.15, 189.69, 0.17, 298.12, -1176, 516, 17286
46000, 1, 9, 59.9630660, 10.7358350, 0, 195.97, 189.84, 0.15, 297.02, -477, 639, 19232
47000, 1, 10, 59.9630660, 10.7358310, 0, 195.8, 189.98, 0.12, 293.26, -433, 662, 18531
48000, 1, 9, 59.9630660, 10.7358300, 0, 195.97, 190.12, 0.11, 289.5, 257, 100, 17432
49000, 1, 9, 59.9630660, 10.7358280, 0, 196.06, 190.27, 0.1, 284.92, 262, 537, 15050
50000, 1, 10, 59.9630660, 10.7358260, 0, 196.23, 190.41, 0.11, 276.12, 180, 592, 15407
51000, 1, 10, 59.9630580, 10.7358280, 0, 196.49, 190.71, 0.43, 270.8, -19, 263, 13826
52000, 1, 10, 59.9630390, 10.7358450, 0, 196.32, 191.33, 2.47, 159.32, 365, -8, 13760
53000, 1, 10, 59.9630200, 10.7358870, 0, 196.15, 191.76, 3.29, 131.68, 639, -312, 14522
54000, 1, 10, 59.9629940, 10.7359230, 0, 196.49, 192.06, 3.13, 132.32, 280, -489, 15997
55000, 1, 10, 59.9629820, 10.7359550, 0, 196.32, 192.47, 2.43, 125.1, 226, 10, 17013
56000, 1, 10, 59.9629710, 10.7360000, 0, 196.49, 192.58, 2.77, 115.56, -154, 261, 16985
57000, 1, 10, 59.9629440, 10.7360360, 0, 196.49, 192.83, 2.71, 124.15, -152, 1058, 16277
58000, 1, 10, 59.9628940, 10.7360650, 0, 197.19, 191.47, 3.4, 132.03, -373, 736, 14362
59000, 1, 10, 59.9628680, 10.7361200, 0, 197.36, 191.04, 3.11, 132.91, -14, 825, 12934
60000, 1, 10, 59.9628490, 10.7361980, 0, 197.79, 190.83, 2.21, 93.74, 383, 1043, 13254
61000, 1, 10, 59.9628680, 10.7363150, 0, 198.31, 191.46, 2.27, 55.89, 243, 998, 12946
62000, 1, 10, 59.9628680, 10.7363590, 0, 198.92, 192.06, 1.54, 55.68, 37, 947, 12175
63000, 1, 10, 59.9628750, 10.7363800, 0, 199.35, 192.33, 1.15, 67.18, 259, 1014, 11770
64000, 1, 10, 59.9628790, 10.7364000, 0, 199.43, 192.69, 1.23, 55.43, -397, 789, 9406
65000, 1, 10, 59.9628940, 10.7364160, 0, 199.43, 193.15, 1.91, 28.4, -105, 353, 8387
66000, 1, 10, 59.9628980, 10.7364700, 0, 199.69, 193.51, 2.4, 5.83, 46, 553, 7956
67000, 1, 10, 59.9629250, 10.7364890, 0, 200.04, 194.54, 2.72, 348.36, 470, 240, 9115
68000, 1, 10, 59.9629440, 10.7364840, 0, 200.04, 195.2, 3.26, 347.26, 157, 67, 10010
69000, 1, 10, 59.9629750, 10.7364710, 0, 200.21, 195.63, 3.53, 348.42, 7, -15, 10455
70000, 1, 10, 59.9630090, 10.7364580, 0, 200.47, 195.9, 3.64, 346.75, 206, 45, 11302
71000, 1, 10, 59.9630390, 10.7364440, 0, 200.21, 196.04, 3.48, 348.9, 296, 56, 12939
72000, 1, 10, 59.9630740, 10.7364330, 0, 200.21, 196.17, 3.78, 358.39, 256, 42, 13516
73000, 1, 10, 59.9631040, 10.7364310, 0, 200.39, 196.32, 3.79, 358.05, 0, 39, 13889
74000, 1, 10, 59.9631420, 10.7364240, 0, 200.47, 196.48, 4.03, 353.78, 207, -97, 14702
75000, 1, 10, 59.9631730, 10.7364180, 0, 200.82, 196.65, 3.83, 352.73, 306, 85, 15522
76000, 1, 10, 59.9632110, 10.7364080, 0, 200.9, 196.87, 4.02, 350.51, 37, 109, 15858
77000, 1, 10, 59.9632450, 10.7363930, 0, 200.65, 197.14, 4.49, 356.45, -99, 19, 15318
78000, 1, 9, 59.9632910, 10.7363990, 0, 200.82, 197.3, 4.49, 354.79, 13, -327, 15507
79000, 1, 9, 59.9633290, 10.7363800, 0, 200.9, 197.35, 3.89, 325.95, -884, 103, 13755
80000, 1, 9, 59.9633480, 10.7363380, 0, 201.08, 197.39, 3.96, 314.18, -343, 364, 11664
81000, 1, 9, 59.9633710, 10.7362800, 0, 200.99, 197.43, 4.06, 299.75, 375, 159, 11949
82000, 1, 9, 59.9633870, 10.7362170, 0, 200.47, 197.45, 3.68, 293.41, 648, -113, 13247
83000, 1, 10, 59.9633980, 10.7361610, 0, 200.13, 197.37, 3.04, 272.4, 745, -149, 15144
84000, 1, 10, 59.9633870, 10.7360970, 0, 199.87, 197.39, 3.34, 255.01, 224, -134, 16897
85000, 1, 10, 59.9633790, 10.7360120, 0, 199.52, 197.26, 4.14, 255.93, -3, -361, 17590
86000, 1, 10, 59.9633710, 10.7359410, 0, 199.17, 196.77, 4.48, 270.74, 18, -163, 17787
87000, 1, 9, 59.9633790, 10.7358480, 0, 198.66, 196.06, 6.77, 295.2, 93, -833, 18145
88000, 1, 10, 59.9634090, 10.7357380, 0, 197.53, 195.12, 7, 296.29, 112, -1101, 18190
89000, 1, 11, 59.9634360, 10.7356230, 0, 197.01, 194.34, 7.11, 295.7, -110, -872, 18219
90000, 1, 11, 59.9634700, 10.7355110, 0, 196.23, 193.73, 7.52, 298.57, 520, -471, 17808
91000, 1, 11, 59.9635010, 10.7353860, 0, 196.23, 193.14, 7.99, 299.69, 1902, -403, 20384
92000, 1, 10, 59.9635470, 10.7352680, 0, 196.32, 192.5, 8.13, 303.19, 727, -268, 21351
93000, 1, 9, 59.9635960, 10.7351810, 0, 196.23, 191.9, 7.57, 335.56, 458, -442, 21436
94000, 1, 10, 59.9636610, 10.7351330, 0, 195.28, 191.38, 7.56, 343.59, 216, -331, 21484
95000, 1, 10, 59.9637260, 10.7350980, 0, 194.94, 190.86, 7.86, 346.24, -201, -265, 20731
96000, 1, 10, 59.9637950, 10.7350640, 0, 194.42, 190.38, 8.11, 344.71, 122, -433, 20272
97000, 1, 10, 59.9638670, 10.7350240, 0, 193.99, 189.88, 7.9, 344.29, 263, -457, 20178
98000, 1, 10, 59.9639360, 10.7349900, 0, 193.3, 189.36, 7.73, 346.9, 43, -539, 19636
99000, 1, 9, 59.9640050, 10.7349630, 0, 192.35, 188.74, 8.36, 352.73, 304, -1128, 19322
100000, 1, 9, 59.9640770, 10.7349510, 0, 191.32, 188.1, 6.96, 357.46, 233, -1198, 19310
101000, 1, 9, 59.9641230, 10.7349450, 0, 190.54, 187.64, 5.75, 355.64, -1024, -800, 17528
102000, 1, 10, 59.9641650, 10.7349300, 0, 190.45, 187.1, 3.27, 352.24, -1080, 446, 13210
103000, 1, 10, 59.9641720, 10.7349050, 0, 190.37, 186.69, 1.78, 230.09, -61, 1579, 11386
104000, 1, 9, 59.9641650, 10.7349050, 0, 190.45, 186.87, 1.73, 220.1, 501, 527, 12441
105000, 1, 7, 59.9641610, 10.7349360, 0, 190.45, 187.26, 1.44, 130.35, 259, 187, 13844
106000, 1, 7, 59.9641460, 10.7349760, 0, 190.11, 187.32, 3.04, 121.95, 196, -772, 13676
107000, 1, 7, 59.9640690, 10.7350090, 0, 189.68, 188.06, 3.13, 16.38, 283, -825, 14591
108000, 0, 4, 59.9640660, 10.7350090, 0, 189.5, 188.26, 3.62, 41.98, 171, -706, 15516
109000, 0, 5, 59.9640660, 10.7350090, 0, 189.5, 188.37, 4.14, 150.84, 130, -615, 15998
110000, 0, 5, 59.9640660, 10.7350090, 0, 189.5, 188.54, 5.08, 154.62, 239, -844, 15979
111000, 1, 8, 59.9639470, 10.7347080, 0, 189.42, 189.6, 1.67, 215.37, -200, 108, 15964
112000, 1, 7, 59.9640010, 10.7345480, 0, 189.24, 191.34, 1.43, 232.64, 403, -3, 16236
113000, 1, 7, 59.9640580, 10.7344580, 0, 188.81, 193.6, 1.29, 245.53, -247, -174, 14672
114000, 1, 7, 59.9641040, 10.7344150, 0, 188.64, 195.28, 1.5, 245.53, -73, 45, 11273
115000, 1, 7, 59.9641610, 10.7343900, 0, 188.81, 196.74, 1.37, 203.23, 503, -385, 14780
116000, 1, 7, 59.9641610, 10.7343410, 0, 188.81, 197.51, 1.99, 211.46, -204, -39, 18151
117000, 1, 7, 59.9641610, 10.7343080, 0, 188.64, 197.94, 2.44, 218.1, -421, -317, 16737
118000, 1, 9, 59.9641420, 10.7343000, 0, 188.64, 197.59, 2.79, 217.83, -545, -68, 16075
119000, 1, 9, 59.9641460, 10.7343030, 0, 188.47, 197.31, 2.95, 213.99, -259, 288, 15014
120000, 1, 9, 59.9641230, 10.7342730, 0, 188.47, 197.73, 3.65, 206.36, -52, 143, 14106
121000, 1, 9, 59.9640880, 10.7342530, 0, 188.55, 198.1, 4.13, 184.05, 805, -36, 15048
122000, 1, 9, 59.9640460, 10.7342530, 0, 188.64, 198.45, 5.11, 181.52, 396, -323, 17171
123000, 1, 9, 59.9640010, 10.7342360, 0, 188.64, 198.9, 5.22, 196.47, -553, -356, 16672
124000, 1, 9, 59.9639550, 10.7342080, 0, 188.64, 199.37, 5.48, 197.3, -236, -213, 16277
125000, 1, 9, 59.9639090, 10.7341800, 0, 188.38, 199.8, 5, 195.78, 291, 14, 16759
126000, 1, 9, 59.9638670, 10.7341650, 0, 188.38, 200.15, 4.81, 190.5, 328, 26, 16951
127000, 1, 10, 59.9638210, 10.7341590, 0, 188.21, 200.48, 5.98, 188.79, 199, -57, 17599
128000, 1, 10, 59.9637640, 10.7341380, 0, 188.55, 200.8, 6.23, 191.7, 101, -258, 17532
129000, 1, 10, 59.9637110, 10.7341160, 0, 188.64, 201, 6.22, 192.23, 220, -182, 17807
130000, 1, 10, 59.9636610, 10.7340900, 0, 188.47, 201.17, 5.93, 195.93, 76, -94, 17981
131000, 1, 10, 59.9636040, 10.7340560, 0, 188.03, 201.35, 6.58, 197.23, 175, -360, 18059
132000, 1, 10, 59.9635510, 10.7340250, 0, 188.12, 201.44, 6.42, 197.3, 313, -300, 18372
133000, 1, 10, 59.9634930, 10.7339910, 0, 188.03, 201.43, 6.18, 198.57, 86, -262, 18702
134000, 1, 10, 59.9634440, 10.7339480, 0, 188.03, 201.38, 5.96, 205.03, -258, -117, 18438
135000, 1, 10, 59.9633980, 10.7339010, 0, 188.12, 201.33, 5.94, 206.45, 95, -129, 18425
136000, 1, 10, 59.9633480, 10.7338600, 0, 188.03, 201.23, 6, 201.83, 189, -78, 18305
137000, 1, 9, 59.9632950, 10.7338230, 0, 187.86, 200.99, 6.15, 199.16, 38, -188, 18157
138000, 1, 9, 59.9632450, 10.7337850, 0, 187.78, 200.59, 6.28, 199.1, 182, -302, 18225
139000, 1, 10, 59.9631880, 10.7337510, 0, 187.78, 200.1, 6.2, 195.96, 387, -449, 18467
140000, 1, 10, 59.9631350, 10.7337210, 0, 187.86, 199.47, 5.67, 195.27, 712, -390, 19223
141000, 1, 10, 59.9630850, 10.7336960, 0, 187.26, 198.86, 6.15, 199.89, 737, -88, 20810
142000, 1, 10, 59.9630320, 10.7336480, 0, 187.17, 198.27, 6.18, 216.61, 546, -44, 22200
143000, 1, 10, 59.9629940, 10.7335760, 0, 187.17, 197.59, 5.56, 229.42, -687, -94, 21626
144000, 1, 10, 59.9629630, 10.7334930, 0, 187.08, 196.82, 6.12, 239.64, -805, -108, 19841
145000, 1, 10, 59.9629360, 10.7334000, 0, 186.91, 195.92, 6.21, 236.03, -621, 79, 18217
146000, 1, 9, 59.9628940, 10.7333130, 0, 187.17, 195.14, 7.14, 217.95, -249, -21, 17260
147000, 1, 10, 59.9628490, 10.7332400, 0, 187.08, 194.54, 7.21, 209.41, 134, -10, 17009
148000, 1, 10, 59.9627910, 10.7331810, 0, 187.34, 193.96, 6.77, 202.55, 297, 121, 17036
149000, 1, 10, 59.9627340, 10.7331400, 0, 187.6, 193.36, 6.71, 197.11, 512, 51, 17423
150000, 1, 10, 59.9626770, 10.7331080, 0, 187.78, 192.86, 6.51, 195.87, 414, 214, 17979
151000, 1, 10, 59.9626160, 10.7330710, 0, 188.29, 192.48, 6.37, 202.25, 242, 86, 18403
152000, 1, 10, 59.9625740, 10.7330260, 0, 188.29, 192.26, 5.96, 204.83, -1, 205, 18571
153000, 1, 10, 59.9625210, 10.7329810, 0, 188.47, 192.09, 6.13, 205.81, 562, 90, 19174
154000, 1, 10, 59.9624710, 10.7329290, 0, 188.29, 191.98, 5.87, 210.96, 314, 62, 19511
155000, 1, 10, 59.9624330, 10.7328750, 0, 188.55, 191.89, 5.54, 214.35, 197, 127, 19291
156000, 1, 10, 59.9623870, 10.7328180, 0, 188.9, 191.81, 5.85, 214.01, 879, 7, 20115
157000, 1, 10, 59.9623490, 10.7327560, 0, 188.9, 191.79, 5.5, 220.16, 260, -133, 20833
158000, 1, 10, 59.9623110, 10.7326860, 0, 189.07, 191.79, 5.36, 225.71, 329, 72, 20944
159000, 1, 10, 59.9622840, 10.7326120, 0, 189.07, 191.71, 4.68, 230.64, 1193, -77, 22650
160000, 1, 10, 59.9622730, 10.7325350, 0, 188.55, 191.47, 4.68, 263.5, 383, 175, 23998
161000, 1, 10, 59.9622730, 10.7324450, 0, 188.47, 191.15, 5.73, 275.66, 58, -83, 24000
162000, 1, 10, 59.9622800, 10.7323440, 0, 188.38, 190.87, 5.84, 283.72, 292, -226, 23386
163000, 1, 10, 59.9622920, 10.7322400, 0, 188.38, 190.6, 5.78, 286.18, 1519, -429, 25903
164000, 1, 10, 59.9623180, 10.7321430, 0, 188.38, 190.41, 5.43, 303.98, -828, -273, 25646
165000, 1, 10, 59.9623410, 10.7320700, 0, 188.29, 190.31, 5.11, 312.72, -998, -375, 23049
166000, 1, 10, 59.9623760, 10.7320000, 0, 187.43, 190.18, 5.78, 313.9, -154, -396, 21388
167000, 1, 10, 59.9624140, 10.7319230, 0, 186.65, 190, 6.35, 309.67, 119, -971, 20388
168000, 1, 10, 59.9624440, 10.7318250, 0, 185.96, 189.74, 7.12, 292.94, 536, -900, 20611
169000, 1, 10, 59.9624630, 10.7317080, 0, 185.18, 189.38, 7.17, 287.21, -1547, -878, 17826
170000, 1, 10, 59.9624820, 10.7315810, 0, 184.23, 189.05, 7.92, 280.25, -342, -143, 16515
171000, 1, 10, 59.9624980, 10.7314360, 0, 184.06, 188.77, 8.24, 269.85, 476, -399, 16715
172000, 1, 10, 59.9624900, 10.7312930, 0, 183.11, 188.66, 7.96, 260.4, 548, -414, 17196
173000, 1, 10, 59.9624710, 10.7311530, 0, 182.34, 188.65, 8.77, 251.67, 183, -339, 17487
174000, 1, 9, 59.9624440, 10.7310000, 0, 181.64, 188.58, 9.58, 243.46, 127, -454, 17686
175000, 1, 9, 59.9623990, 10.7308440, 0, 181.13, 188.43, 9.86, 240.44, 830, -279, 18500
176000, 1, 9, 59.9623600, 10.7306880, 0, 181.39, 188.19, 10.28, 244.24, 398, -463, 19373
177000, 1, 10, 59.9623180, 10.7305110, 0, 181.56, 186.92, 10.11, 254.75, -305, -314, 19423
178000, 1, 10, 59.9622920, 10.7303270, 0, 181.64, 186.18, 9.79, 260.49, -551, -251, 19144
179000, 1, 10, 59.9622800, 10.7301600, 0, 180.95, 185.8, 9.18, 256.84, -958, -211, 18368
180000, 1, 10, 59.9622540, 10.7300030, 0, 180.87, 185.48, 9.42, 248.95, -680, 57, 17460
181000, 1, 10, 59.9622080, 10.7298600, 0, 180.78, 185.25, 9.21, 244.11, 1128, -71, 18003
182000, 1, 10, 59.9621580, 10.7297270, 0, 181.13, 185.06, 9.05, 239.77, 1751, -174, 20221
183000, 1, 10, 59.9621200, 10.7295900, 0, 181.13, 184.84, 8.98, 239.54, -363, -55, 20287
184000, 1, 10, 59.9620930, 10.7294410, 0, 180.52, 184.59, 8.73, 242.7, -311, -144, 19952
185000, 1, 10, 59.9620740, 10.7292880, 0, 180.35, 184.48, 8.94, 247.27, -63, -126, 19886
186000, 1, 10, 59.9620550, 10.7291330, 0, 180.52, 184.49, 8.67, 251.51, 52, -53, 19917
187000, 1, 10, 59.9620400, 10.7289810, 0, 180.61, 184.6, 8.54, 256.87, -14, -42, 19843
188000, 1, 10, 59.9620210, 10.7288330, 0, 180.87, 184.75, 8.46, 255.14, 170, -176, 20046
189000, 1, 10, 59.9620020, 10.7286860, 0, 180.87, 184.9, 8.36, 254.21, 107, -50, 19942
190000, 1, 10, 59.9619830, 10.7285400, 0, 180.61, 185.05, 8.38, 255.73, -26, 102, 19838
191000, 1, 9, 59.9619640, 10.7283960, 0, 180.18, 185.23, 8.14, 258.29, 405, 77, 20215
192000, 1, 9, 59.9619520, 10.7282550, 0, 180.44, 185.36, 8.14, 258.42, -53, 12, 19950
193000, 1, 10, 59.9619330, 10.7281130, 0, 180.26, 185.45, 8.01, 257.1, -187, -110, 19686
194000, 1, 10, 59.9619220, 10.7279730, 0, 180.26, 185.52, 8.17, 257.23, -753, -175, 18848
195000, 1, 10, 59.9619030, 10.7278280, 0, 180.18, 185.54, 8.72, 254.21, -597, -412, 17939
196000, 1, 10, 59.9618680, 10.7276830, 0, 179.57, 185.58, 8.89, 238.91, -297, -489, 17547
197000, 1, 10, 59.9618230, 10.7275560, 0, 178.45, 185.35, 9, 226.37, 138, -425, 17655
198000, 1, 9, 59.9617650, 10.7274410, 0, 178.02, 184.84, 9.17, 223.74, -553, -55, 17440
199000, 1, 9, 59.9617040, 10.7273260, 0, 178.02, 184.31, 9.9, 220.75, -611, 340, 16516
200000, 1, 9, 59.9616240, 10.7272300, 0, 178.11, 183.88, 10.06, 216.74, 0, 25, 16370
201000, 1, 9, 59.9615480, 10.7271530, 0, 178.19, 183.52, 9.37, 212.35, 577, 82, 16903
202000, 1, 10, 59.9614720, 10.7270980, 0, 178.28, 183.2, 8.63, 207.83, 355, 132, 17128
203000, 1, 10, 59.9613950, 10.7270500, 0, 178.62, 182.89, 8.67, 203.98, 449, 1, 17502
204000, 1, 10, 59.9613270, 10.7270030, 0, 178.8, 182.64, 8.49, 200.11, 327, -32, 17811
205000, 1, 10, 59.9612540, 10.7269560, 0, 178.88, 182.43, 8.05, 197.51, 137, 87, 17882
206000, 1, 10, 59.9611850, 10.7269150, 0, 178.62, 182.23, 8.01, 196, 990, 21, 18742
207000, 1, 10, 59.9611130, 10.7268720, 0, 178.54, 182.02, 7.73, 198.42, 824, -144, 19693
208000, 1, 10, 59.9610480, 10.7268150, 0, 178.37, 181.75, 8.07, 202.69, 631, -228, 20115
209000, 1, 10, 59.9609910, 10.7267290, 0, 178.19, 181.41, 8.34, 207.71, 1329, -137, 21466
210000, 1, 10, 59.9609410, 10.7266240, 0, 177.85, 181.03, 8.36, 236.3, 1197, -38, 23016
211000, 1, 10, 59.9609030, 10.7264900, 0, 177.59, 180.59, 8.38, 247.3, -22, -50, 22752
212000, 1, 10, 59.9608760, 10.7263460, 0, 177.24, 180.12, 8.63, 256.62, -127, -232, 22599
213000, 1, 10, 59.9608650, 10.7261960, 0, 176.98, 179.64, 8.71, 263.17, -228, -212, 22021
214000, 1, 10, 59.9608500, 10.7260410, 0, 176.98, 179.13, 8.8, 262.7, -143, -190, 21363
215000, 1, 10, 59.9608380, 10.7258880, 0, 176.9, 178.63, 8.39, 257.96, 90, -71, 21007
216000, 1, 10, 59.9608270, 10.7257400, 0, 176.9, 178.35, 8.41, 258.27, 206, -87, 20882
217000, 1, 10, 59.9608080, 10.7255960, 0, 176.64, 178.21, 8.4, 252.06, 78, -142, 20583
218000, 1, 10, 59.9607890, 10.7254510, 0, 176.29, 178.19, 8.81, 256.09, 130, -268, 20519
219000, 1, 10, 59.9607700, 10.7252950, 0, 175.95, 178.27, 9.21, 258.21, 234, -386, 20395
220000, 1, 10, 59.9607510, 10.7251350, 0, 175.69, 178.34, 8.95, 257.35, 152, -309, 20414
221000, 1, 10, 59.9607350, 10.7249800, 0, 175.6, 178.37, 8.79, 257.43, -29, -59, 20322
222000, 1, 10, 59.9607090, 10.7248250, 0, 175.43, 178.4, 8.83, 254.77, -152, -121, 19915
223000, 1, 10, 59.9606900, 10.7246800, 0, 175.26, 178.44, 8.19, 252.27, -862, -62, 19401
224000, 1, 10, 59.9606700, 10.7245400, 0, 174.91, 178.52, 8.32, 250.62, -1608, -69, 17360
225000, 1, 10, 59.9606320, 10.7244110, 0, 174.48, 178.64, 7.96, 229.48, 155, 189, 16593
226000, 1, 10, 59.9605900, 10.7243080, 0, 174.48, 178.7, 7.29, 228.48, 576, 11, 17584
227000, 1, 10, 59.9605450, 10.7242160, 0, 174.57, 178.91, 7.34, 221.09, 217, -10, 17798
228000, 1, 10, 59.9604910, 10.7241350, 0, 174.22, 179.23, 7.12, 218.62, 234, -127, 17986
229000, 1, 10, 59.9604420, 10.7240520, 0, 173.71, 179.69, 7.34, 218.82, 173, -132, 18089
230000, 1, 10, 59.9603920, 10.7239690, 0, 173.53, 180.26, 7.24, 220.42, 267, -156, 18500
231000, 1, 10, 59.9603460, 10.7238810, 0, 173.02, 180.85, 6.64, 224.11, 12, 28, 18587
232000, 1, 10, 59.9603080, 10.7237950, 0, 172.59, 181.46, 6.44, 227.69, -361, -14, 18290
233000, 1, 10, 59.9602620, 10.7237110, 0, 172.41, 182.08, 6.57, 222.28, -474, -125, 17544
234000, 1, 10, 59.9602170, 10.7236330, 0, 172.24, 182.77, 7.8, 210.76, -103, -113, 17393
235000, 1, 10, 59.9601550, 10.7235700, 0, 172.07, 183.63, 8.21, 200.38, -661, -534, 16667
236000, 1, 10, 59.9600830, 10.7235260, 0, 171.81, 184.55, 8.43, 188.61, -688, -513, 15797
237000, 1, 10, 59.9600140, 10.7235180, 0, 170.95, 185.43, 7.48, 176.4, 423, -238, 16035
238000, 1, 10, 59.9599420, 10.7235370, 0, 170.34, 186.32, 8.04, 167.87, 399, -186, 16625
239000, 1, 10, 59.9598920, 10.7235630, 0, 169.91, 186.99, 8.57, 161.77, 310, -428, 16984
240000, 1, 10, 59.9598160, 10.7236130, 0, 169.4, 187.78, 9.29, 161.54, 296, -500, 17415
241000, 1, 10, 59.9597360, 10.7236560, 0, 168.97, 188.43, 9.52, 164.66, 412, -328, 17852
242000, 1, 10, 59.9596480, 10.7236750, 0, 168.88, 188.95, 9.43, 167.92, 500, -257, 18354
243000, 1, 9, 59.9595640, 10.7236900, 0, 168.71, 189.42, 9.46, 170.52, 259, -140, 18610
244000, 1, 9, 59.9594800, 10.7236980, 0, 168.36, 189.87, 9.49, 173.3, 124, -281, 18669
245000, 1, 10, 59.9593930, 10.7236900, 0, 168.19, 190.42, 9.7, 176.75, 516, -232, 18888
246000, 1, 11, 59.9593090, 10.7236800, 0, 168.53, 190.99, 9.22, 183.15, 82, -181, 19061
247000, 1, 11, 59.9592250, 10.7236710, 0, 168.45, 191.59, 9.5, 183.94, -3, -200, 18884
248000, 1, 11, 59.9591370, 10.7236600, 0, 168.36, 192.19, 9.49, 183.95, 213, -201, 18717
249000, 1, 11, 59.9590530, 10.7236480, 0, 168.02, 192.81, 9.2, 183.9, 277, -85, 18763
250000, 1, 10, 59.9589770, 10.7236360, 0, 167.93, 193.42, 8.87, 185.63, -132, 72, 18697
251000, 1, 10, 59.9589000, 10.7236200, 0, 167.76, 193.98, 8.71, 186.23, -25, 56, 18447
252000, 1, 10, 59.9588240, 10.7235980, 0, 167.93, 194.54, 8.25, 189.39, 352, 133, 18645
253000, 1, 10, 59.9587520, 10.7235710, 0, 167.93, 195.1, 5.69, 195.21, 150, 576, 18539
254000, 1, 10, 59.9587060, 10.7235400, 0, 168.1, 195.68, 5.07, 200.6, -23, 687, 18468
255000, 1, 9, 59.9586680, 10.7235130, 0, 168.1, 196.19, 4.8, 196.19, 215, 462, 18658
256000, 1, 9, 59.9586110, 10.7234880, 0, 167.84, 195.32, 5.52, 191.06, 304, 111, 18777
257000, 1, 9, 59.9585610, 10.7234720, 0, 168.19, 195.46, 7.2, 187.64, 188, -413, 18781
258000, 1, 9, 59.9584880, 10.7234470, 0, 168.28, 195.75, 7.56, 191.83, 349, -396, 18962
259000, 1, 9, 59.9584270, 10.7234210, 0, 168.45, 196.21, 7.68, 189.53, 95, -373, 18914
260000, 1, 10, 59.9583550, 10.7234070, 0, 167.84, 196.7, 6.78, 184.62, 51, -34, 19117
261000, 1, 10, 59.9582980, 10.7233880, 0, 168.28, 197.12, 6.67, 188.84, 131, -65, 19224
262000, 1, 9, 59.9582410, 10.7233670, 0, 168.62, 197.5, 6.35, 193.28, 82, 46, 19563
263000, 1, 10, 59.9581870, 10.7233370, 0, 168.79, 197.86, 5.96, 197.32, -87, 247, 19490
264000, 1, 10, 59.9581380, 10.7233030, 0, 169.05, 198.19, 5.78, 199.09, 135, 167, 19540
265000, 1, 10, 59.9580880, 10.7232720, 0, 169.14, 198.4, 6.02, 197.26, 227, 119, 19583
266000, 1, 10, 59.9580350, 10.7232400, 0, 168.97, 198.51, 6.41, 197.64, 69, 22, 19434
267000, 1, 10, 59.9579770, 10.7232070, 0, 169.31, 198.53, 6.27, 196.21, 66, 76, 19245
268000, 1, 10, 59.9579280, 10.7231730, 0, 169.4, 198.52, 5.74, 199.31, 6, 153, 19205
269000, 1, 10, 59.9578820, 10.7231360, 0, 169.57, 198.56, 5.51, 202.38, -83, 135, 19101
270000, 1, 10, 59.9578360, 10.7231010, 0, 169.66, 198.6, 4.81, 202.54, -7, 223, 18916
271000, 1, 10, 59.9577900, 10.7230650, 0, 169.74, 198.65, 5.51, 201.01, 209, -226, 18911
272000, 1, 10, 59.9577480, 10.7230390, 0, 169.14, 198.69, 5.46, 195.27, 154, -318, 18694
273000, 1, 10, 59.9577030, 10.7230160, 0, 168.97, 198.66, 5.32, 189.93, 162, -255, 18826
274000, 1, 10, 59.9576450, 10.7229930, 0, 168.62, 198.7, 6.39, 194.15, 198, -501, 18856
275000, 1, 10, 59.9575920, 10.7229630, 0, 168.1, 198.72, 6.82, 193.94, 44, -521, 18829
276000, 1, 10, 59.9575310, 10.7229360, 0, 167.67, 198.39, 7.27, 193.43, 158, -516, 18789
277000, 1, 10, 59.9574660, 10.7229030, 0, 167.24, 197.88, 7.84, 193.42, 355, -486, 19066
278000, 1, 10, 59.9573940, 10.7228710, 0, 166.04, 197.31, 7.96, 194.06, 25, -693, 19034
279000, 1, 10, 59.9573250, 10.7228310, 0, 165.35, 196.72, 8.29, 197.22, 622, -1020, 19102
280000, 1, 10, 59.9572530, 10.7227860, 0, 164.74, 196.11, 7.82, 198.87, 1580, -806, 21507
281000, 1, 10, 59.9571950, 10.7227350, 0, 164.48, 195.47, 6.58, 215.97, -620, 84, 23269
282000, 1, 10, 59.9571530, 10.7226550, 0, 164.4, 194.79, 6.1, 234.42, -1432, -269, 20086
283000, 1, 10, 59.9571190, 10.7225680, 0, 164.31, 194.06, 6.28, 231.05, -538, 17, 18619
284000, 1, 11, 59.9570770, 10.7224910, 0, 163.88, 193.39, 7.57, 210.17, 324, -343, 18465
285000, 1, 10, 59.9570160, 10.7224300, 0, 163.28, 192.98, 7.89, 202.04, 403, -465, 18824
286000, 1, 11, 59.9569470, 10.7223780, 0, 163.28, 192.6, 7.58, 202.4, 298, -343, 18950
287000, 1, 11, 59.9568820, 10.7223240, 0, 163.11, 192.34, 7.95, 202.39, 244, -312, 19079
288000, 1, 11, 59.9568180, 10.7222700, 0, 162.68, 192.25, 8.32, 201.91, 151, -409, 19134
289000, 1, 11, 59.9567490, 10.7222130, 0, 162.33, 192.34, 8.68, 203.51, 251, -306, 19321
290000, 1, 11, 59.9566800, 10.7221480, 0, 161.99, 192.53, 8.58, 205.75, 370, -317, 19566
291000, 1, 11, 59.9566080, 10.7220730, 0, 161.21, 192.71, 8.61, 211.07, 227, -306, 19657
292000, 1, 11, 59.9565430, 10.7219880, 0, 160.61, 192.77, 8.46, 216.12, 401, -150, 19976
293000, 1, 11, 59.9564780, 10.7218960, 0, 160.01, 192.82, 8.9, 217.88, 292, -419, 20079
294000, 1, 11, 59.9564210, 10.7217930, 0, 160.01, 192.93, 8.9, 221.46, 306, -370, 20184
295000, 1, 11, 59.9563640, 10.7216910, 0, 159.75, 193.1, 8.78, 221.97, 200, -273, 20187
296000, 1, 11, 59.9563060, 10.7215810, 0, 158.97, 193.36, 9.03, 224.12, 332, -249, 20381
297000, 1, 11, 59.9562420, 10.7214710, 0, 158.63, 193.73, 9.13, 223.85, 170, -188, 20299
298000, 1, 11, 59.9561840, 10.7213550, 0, 158.37, 194.23, 9.12, 225.9, 102, -224, 20261
299000, 1, 11, 59.9561270, 10.7212360, 0, 158.03, 194.89, 9.17, 227.3, 149, -247, 20272
300000, 1, 11, 59.9560780, 10.7211200, 0, 157.85, 195.65, 8.89, 227.19, 57, -148, 20209
301000, 1, 10, 59.9560240, 10.7209990, 0, 157.94, 196.52, 8.7, 233.49, 44, -134, 20152
302000, 1, 10, 59.9559820, 10.7208750, 0, 157.85, 197.39, 8.42, 232.7, 234, -138, 20165
303000, 1, 10, 59.9559360, 10.7207600, 0, 157.51, 198.25, 8.16, 229.54, 76, -171, 20063
304000, 1, 11, 59.9558830, 10.7206500, 0, 157.42, 199.16, 8.04, 229.84, 233, -65, 20173
305000, 1, 11, 59.9558410, 10.7205400, 0, 157.51, 200.03, 7.85, 231.39, 104, -77, 20255
306000, 1, 11, 59.9558030, 10.7204280, 0, 157.42, 200.88, 7.84, 235.18, 44, -75, 20172
307000, 1, 11, 59.9557650, 10.7203110, 0, 157.25, 201.69, 7.74, 237.08, -188, -37, 19574
308000, 1, 11, 59.9557190, 10.7202000, 0, 157.25, 202.39, 7.69, 232.72, 141, -108, 19703
309000, 1, 11, 59.9556730, 10.7200910, 0, 156.99, 203.07, 7.92, 230.32, -3, -104, 19604
310000, 1, 11, 59.9556270, 10.7199860, 0, 156.99, 203.78, 7.57, 228.71, 225, -68, 19674
311000, 1, 11, 59.9555700, 10.7198430, 0, 156.91, 203.53, 7.5, 231.54, 118, -105, 19596
312000, 1, 11, 59.9555280, 10.7197400, 0, 156.99, 204.29, 7.34, 231.83, -31, -33, 19302
313000, 1, 11, 59.9554860, 10.7196330, 0, 156.99, 204.96, 7.43, 236.64, 21, -105, 19261
314000, 1, 11, 59.9554480, 10.7195240, 0, 156.82, 205.53, 7.86, 232.08, 85, -211, 19242
315000, 1, 11, 59.9553990, 10.7194230, 0, 156.82, 206.16, 7.92, 229.77, 118, -223, 19180
316000, 1, 11, 59.9553490, 10.7193230, 0, 156.56, 206.71, 7.8, 225.45, 106, -93, 19064
317000, 1, 11, 59.9553030, 10.7192260, 0, 156.39, 207.21, 7.79, 223.04, 3, -121, 18931
318000, 1, 11, 59.9552500, 10.7191360, 0, 156.56, 207.87, 7.09, 219.27, 83, 18, 18884
319000, 1, 11, 59.9552000, 10.7190490, 0, 156.39, 208.56, 7.13, 222.48, 22, -51, 18805
320000, 1, 11, 59.9551540, 10.7189550, 0, 155.96, 209.32, 7.49, 226.8, 254, -136, 18971
321000, 1, 11, 59.9551090, 10.7188580, 0, 155.87, 210.18, 7.59, 224.92, 99, -239, 18948
322000, 1, 11, 59.9550590, 10.7187660, 0, 155.79, 211.06, 7.79, 220.93, 94, -300, 18975
323000, 1, 11, 59.9550090, 10.7186780, 0, 155.79, 211.9, 7.7, 220.75, 195, -288, 19123
324000, 1, 11, 59.9549520, 10.7185880, 0, 155.53, 212.61, 7.67, 219.56, 331, -386, 19292
325000, 1, 11, 59.9548720, 10.7184880, 0, 155.1, 213.12, 7.42, 224.54, 52, -283, 19217
326000, 1, 11, 59.9548300, 10.7183960, 0, 154.5, 213.66, 7.72, 220.52, 209, -286, 19271
327000, 1, 11, 59.9547730, 10.7183060, 0, 154.33, 214.03, 8.14, 218.94, 540, -444, 19694
328000, 1, 11, 59.9547120, 10.7182090, 0, 154.24, 214.33, 7.86, 224.25, 2, -288, 19798
329000, 1, 11, 59.9546620, 10.7181110, 0, 153.72, 214.63, 7.86, 222.75, -720, -335, 19307
330000, 1, 11, 59.9545750, 10.7179400, 0, 153.38, 205.9, 8.13, 217.3, 1612, -416, 18947
331000, 1, 11, 59.9545140, 10.7178570, 0, 153.55, 206.22, 7.86, 217.93, 418, -225, 21034
332000, 1, 11, 59.9544640, 10.7177600, 0, 152.95, 206.34, 7.8, 229.61, -322, -227, 20360
333000, 1, 11, 59.9544180, 10.7176530, 0, 152.95, 206.36, 7.61, 233, -255, -168, 19752
334000, 1, 11, 59.9543800, 10.7175400, 0, 152.86, 206.44, 8.04, 234.05, 254, -246, 20319
335000, 1, 11, 59.9543340, 10.7174200, 0, 152.35, 206.68, 8.2, 235.17, 62, -311, 19694
336000, 1, 11, 59.9542920, 10.7173030, 0, 152.35, 206.96, 7.88, 232.45, 143, -241, 19620
337000, 1, 11, 59.9542540, 10.7171930, 0, 152.17, 207.27, 7.81, 231.41, 322, -272, 19811
338000, 1, 11, 59.9542080, 10.7170800, 0, 151.74, 207.57, 7.71, 238.05, 198, -332, 19785
339000, 1, 11, 59.9541780, 10.7169600, 0, 150.97, 207.88, 8.02, 236.99, 39, -411, 19759
340000, 1, 11, 59.9541240, 10.7168410, 0, 150.54, 208.1, 8.57, 230.5, -91, -500, 19713
341000, 1, 11, 59.9540790, 10.7167200, 0, 150.02, 208.31, 8.94, 230, -729, -489, 18723
342000, 1, 11, 59.9540210, 10.7166050, 0, 149.42, 208.44, 9.02, 221.74, 263, -526, 18493
343000, 1, 11, 59.9539570, 10.7165000, 0, 148.39, 208.31, 9.75, 215.52, 316, -745, 18484
344000, 1, 11, 59.9538880, 10.7164030, 0, 146.93, 207.99, 9.62, 212.06, 615, -1454, 18779
345000, 1, 11, 59.9537930, 10.7162560, 0, 145.47, 202.46, 7.86, 210.78, 243, -1667, 18685
346000, 1, 11, 59.9537390, 10.7161930, 0, 144.69, 201.9, 4.49, 214, 621, -692, 19582
347000, 1, 11, 59.9536970, 10.7161400, 0, 144.26, 201.27, 2.86, 225.88, 46, -168, 19982
348000, 1, 11, 59.9536400, 10.7160750, 0, 144.26, 199.25, 1.66, 225.78, 37, 87, 19168
349000, 1, 11, 59.9535680, 10.7160600, 0, 144.18, 194.98, 1.32, 224.73, -98, 337, 18425
350000, 1, 11, 59.9535290, 10.7160280, 0, 144.18, 190.53, 1.85, 225.46, -486, 331, 17992
351000, 1, 11, 59.9534720, 10.7160080, 0, 143.83, 188.08, 1.74, 194.62, -288, 291, 14083
352000, 1, 11, 59.9534030, 10.7160300, 0, 143.83, 187.62, 2.64, 160.46, 245, 8, 14015
353000, 1, 11, 59.9533310, 10.7160840, 0, 143.75, 186.6, 3.31, 138.49, -8, -143, 13793
354000, 1, 11, 59.9532810, 10.7161360, 0, 143.4, 185.31, 4.99, 135.55, 111, -530, 14047
355000, 1, 11, 59.9532470, 10.7162030, 0, 143.06, 185.34, 5.37, 134.93, 212, -539, 14577
356000, 1, 11, 59.9532170, 10.7162710, 0, 142.89, 185.35, 6.07, 136.71, 149, -479, 15229
357000, 1, 11, 59.9531710, 10.7163510, 0, 141.94, 185.39, 7.03, 139.55, 24, -665, 15558
358000, 1, 11, 59.9531210, 10.7164350, 0, 141.26, 185.42, 7.6, 137.81, 293, -702, 16114
359000, 1, 11, 59.9530680, 10.7165300, 0, 141.26, 185.4, 8.15, 136.79, 232, -549, 16669
360000, 1, 11, 59.9530180, 10.7166250, 0, 140.74, 185.28, 8.35, 140.04, 347, -563, 17022
361000, 1, 11, 59.9529530, 10.7167200, 0, 140.31, 185.12, 8.47, 142.89, 196, -430, 17321
362000, 1, 11, 59.9528960, 10.7168060, 0, 139.54, 184.92, 8.79, 147.97, 218, -476, 17514
363000, 1, 11, 59.9528270, 10.7168910, 0, 139.02, 184.69, 9.32, 148.86, 674, -501, 18002
364000, 1, 11, 59.9527550, 10.7169760, 0, 138.34, 184.4, 9.27, 150.4, 299, -501, 18303
365000, 1, 11, 59.9526790, 10.7170560, 0, 137.73, 184.15, 9.34, 152.22, -136, -307, 18269
366000, 1, 11, 59.9526060, 10.7171320, 0, 137.3, 183.96, 9.36, 153.85, 337, -301, 18449
367000, 1, 11, 59.9525300, 10.7172010, 0, 136.88, 183.77, 8.72, 155.95, 533, -230, 18891
368000, 1, 11, 59.9524540, 10.7172600, 0, 136.62, 183.68, 9.11, 160.73, 732, -344, 19162
369000, 1, 11, 59.9523960, 10.7172960, 0, 135.5, 183.59, 9.63, 166.2, 1882, -481, 21140
370000, 1, 11, 59.9522900, 10.7173130, 0, 134.9, 183.4, 10.09, 188.25, 1589, -282, 22557
371000, 1, 11, 59.9522170, 10.7172830, 0, 134.56, 183.31, 10.19, 201.6, 905, -212, 23514
372000, 1, 11, 59.9521410, 10.7171960, 0, 134.3, 183.11, 9.77, 217.05, 56, -124, 23283
373000, 1, 11, 59.9520720, 10.7170810, 0, 133.96, 182.9, 9.74, 226.7, -315, -107, 22791
374000, 1, 11, 59.9520190, 10.7169500, 0, 133.44, 182.61, 9.5, 233.56, -796, -258, 21899
375000, 1, 11, 59.9519690, 10.7168150, 0, 133.1, 182.22, 9.64, 229.73, -1385, -402, 20188
376000, 1, 11, 59.9519040, 10.7166950, 0, 132.24, 181.66, 9.88, 223.32, -1324, -434, 18480
377000, 1, 11, 59.9518280, 10.7166050, 0, 131.98, 181.29, 9.82, 217.94, -912, -338, 17063
378000, 1, 11, 59.9517440, 10.7165560, 0, 131.64, 180.92, 9.92, 186.4, -376, -175, 16382
379000, 1, 11, 59.9516490, 10.7165510, 0, 130.44, 180.54, 10.26, 173.44, 169, -284, 16365
380000, 1, 11, 59.9515530, 10.7166000, 0, 129.66, 178.74, 10.48, 165.72, 428, -364, 16628
381000, 1, 11, 59.9514500, 10.7166790, 0, 128.64, 176.48, 10.56, 162.63, 364, -441, 17027
382000, 1, 11, 59.9513470, 10.7167380, 0, 128.03, 175.02, 10.72, 162.67, 184, -434, 17112
383000, 1, 11, 59.9512440, 10.7168150, 0, 126.92, 173.21, 10.98, 161.74, 320, -475, 17412
384000, 1, 11, 59.9511380, 10.7168840, 0, 126.15, 170.86, 11.18, 163.34, 340, -558, 17591
385000, 1, 11, 59.9510270, 10.7169510, 0, 125.2, 168.37, 11.25, 165.23, 391, -572, 17797
386000, 1, 11, 59.9509120, 10.7170100, 0, 124.18, 166.11, 11.73, 163.67, 722, -548, 18212
387000, 1, 11, 59.9508020, 10.7170560, 0, 123.15, 164.4, 11.74, 165.67, 174, -713, 18415
388000, 1, 11, 59.9506870, 10.7170960, 0, 122.37, 161.84, 11.85, 168.76, 429, -697, 18824
389000, 1, 10, 59.9505730, 10.7171130, 0, 121.6, 158.76, 11.94, 172.71, 491, -622, 19200
390000, 1, 11, 59.9504510, 10.7171210, 0, 120.83, 155.59, 11.94, 176.97, 831, -522, 19602
391000, 1, 11, 59.9503250, 10.7171120, 0, 120.57, 153.33, 12.15, 182.26, 344, -537, 19739
392000, 1, 10, 59.9502030, 10.7170810, 0, 119.46, 150.8, 12.11, 187.2, 58, -424, 19592
393000, 1, 10, 59.9500810, 10.7170310, 0, 118.43, 148.24, 12.26, 189.49, 182, -314, 19555
394000, 1, 9, 59.9499700, 10.7169960, 0, 118.09, 146.49, 12.07, 190.07, 95, -194, 19444
395000, 1, 10, 59.9498560, 10.7169450, 0, 117.66, 144.5, 11.8, 190.57, 181, -264, 19468
396000, 1, 11, 59.9497340, 10.7168910, 0, 117.4, 141.15, 11.26, 191.27, 367, -301, 19461
397000, 1, 10, 59.9496310, 10.7168330, 0, 116.89, 139.6, 10.33, 192.02, -30, -369, 19162
398000, 1, 10, 59.9495430, 10.7167950, 0, 116.12, 139.01, 9.01, 191.82, 104, -539, 19045
399000, 1, 11, 59.9494710, 10.7167610, 0, 115.86, 138.58, 6.7, 194.85, 302, 87, 19314
400000, 1, 11, 59.9494210, 10.7167350, 0, 115.86, 138.17, 5.65, 193.4, 262, 400, 19070
401000, 1, 11, 59.9493750, 10.7167150, 0, 116.12, 137.91, 5.39, 191.35, 130, 324, 19003
402000, 1, 11, 59.9493260, 10.7166960, 0, 116.03, 137.73, 4.3, 191.81, 42, 324, 18850
403000, 1, 11, 59.9492910, 10.7166800, 0, 116.2, 137.5, 3.6, 194.27, 299, 542, 18859
404000, 1, 11, 59.9492530, 10.7166650, 0, 116.03, 137.24, 5.3, 190.34, 205, -71, 18866
405000, 1, 11, 59.9492030, 10.7166460, 0, 116.03, 137.05, 5.81, 190.08, 287, -233, 18658
406000, 1, 11, 59.9491540, 10.7166280, 0, 116.03, 136.93, 6.01, 189.03, 328, -318, 18598
407000, 1, 11, 59.9491000, 10.7166160, 0, 116.12, 136.83, 5.92, 184.98, 269, -104, 18873
408000, 1, 11, 59.9490510, 10.7166060, 0, 116.03, 136.7, 6.44, 186.04, 45, -114, 18781
409000, 1, 11, 59.9489860, 10.7165900, 0, 115.86, 136.57, 6.92, 188.53, 39, -283, 18493
410000, 1, 11, 59.9489290, 10.7165730, 0, 116.12, 136.44, 6.99, 187.85, 241, -251, 18718
411000, 1, 11, 59.9488640, 10.7165580, 0, 115.6, 136.31, 7.09, 185.88, 205, -267, 18786
412000, 1, 11, 59.9487990, 10.7165450, 0, 115.6, 136.18, 7.31, 185.38, -34, -139, 18640
413000, 1, 11, 59.9487340, 10.7165330, 0, 115.6, 136.05, 7.11, 185.41, 147, -200, 18636
414000, 1, 11, 59.9486730, 10.7165210, 0, 115.69, 135.96, 7.13, 184.99, 224, -158, 18564
415000, 1, 11, 59.9486080, 10.7165130, 0, 115.6, 135.94, 7.25, 182.61, 184, -274, 18559
416000, 1, 11, 59.9485440, 10.7165060, 0, 115.09, 135.88, 7.34, 182.5, 239, -236, 18427
417000, 1, 11, 59.9484750, 10.7165010, 0, 114.66, 135.82, 7.31, 182.29, 135, -229, 18511
418000, 1, 11, 59.9484100, 10.7164960, 0, 114.32, 135.7, 7.45, 182.62, 257, -305, 18569
419000, 1, 11, 59.9483380, 10.7164900, 0, 114.41, 135.5, 7.58, 182.49, 364, -298, 18841
420000, 1, 11, 59.9482770, 10.7164810, 0, 113.98, 135.27, 7.54, 182.73, 513, -306, 18996
421000, 1, 11, 59.9482040, 10.7164750, 0, 113.81, 135.07, 7.5, 184.13, 374, -277, 19365
422000, 1, 11, 59.9481390, 10.7164600, 0, 113.55, 134.92, 7.61, 187.95, -209, -332, 19094
423000, 1, 11, 59.9480710, 10.7164400, 0, 112.69, 134.81, 7.74, 189.33, -1216, -423, 17988
424000, 1, 11, 59.9480020, 10.7164200, 0, 112.52, 134.7, 7.52, 186.7, -1611, -175, 15510
425000, 1, 11, 59.9479370, 10.7164250, 0, 112.52, 134.66, 7.58, 164.17, -969, 172, 13472
426000, 1, 11, 59.9478800, 10.7164960, 0, 112.44, 134.59, 7.59, 129.12, 111, 518, 12758
427000, 1, 11, 59.9478420, 10.7166150, 0, 112.44, 134.47, 7.87, 111.71, 461, -198, 13275
428000, 1, 11, 59.9478230, 10.7167440, 0, 112.26, 134.3, 7.6, 106.75, 371, -211, 13804
429000, 1, 11, 59.9478030, 10.7168760, 0, 111.75, 134.12, 7.53, 102.85, 206, -241, 14324
430000, 1, 11, 59.9477880, 10.7170070, 0, 111.24, 133.95, 7.46, 102.32, 189, -144, 14680
431000, 1, 11, 59.9477690, 10.7171400, 0, 110.81, 133.79, 7.81, 103.27, 265, -288, 15130
432000, 1, 11, 59.9477580, 10.7172780, 0, 110.89, 133.67, 8.17, 102.96, 273, -312, 15381
433000, 1, 11, 59.9477390, 10.7174200, 0, 110.29, 133.57, 8.2, 104.33, 303, -413, 15805
434000, 1, 11, 59.9477200, 10.7175650, 0, 109.95, 133.51, 8.53, 104.61, 133, -433, 15839
435000, 1, 11, 59.9477010, 10.7177110, 0, 109.61, 133.46, 8.14, 105.21, 294, -706, 16192
436000, 1, 11, 59.9476810, 10.7178470, 0, 108.75, 133.42, 7.12, 104.46, 314, -542, 16309
437000, 1, 11, 59.9476660, 10.7179630, 0, 108.58, 133.42, 6.38, 104.31, 62, -298, 16420
438000, 1, 11, 59.9476470, 10.7180710, 0, 108.41, 133.53, 5.9, 107.29, 213, -218, 16157
439000, 1, 11, 59.9476360, 10.7181660, 0, 108.07, 133.7, 5.41, 108.48, 1207, -379, 18093
440000, 1, 11, 59.9476240, 10.7182550, 0, 107.64, 133.88, 5.01, 112.36, 989, -402, 20154
441000, 1, 11, 59.9476010, 10.7183290, 0, 107.38, 134.06, 4.38, 131.95, 1053, 98, 23307
442000, 1, 11, 59.9475710, 10.7183690, 0, 107.21, 134.23, 4.41, 175.69, 122, 181, 24372
443000, 1, 11, 59.9475250, 10.7183610, 0, 107.3, 134.35, 5.78, 196.14, -426, -482, 23069
444000, 1, 11, 59.9474750, 10.7183310, 0, 107.13, 134.41, 6.33, 197.37, 313, -578, 22914
445000, 1, 11, 59.9474180, 10.7182930, 0, 106.36, 134.31, 6.81, 199.34, 30, -722, 22331
446000, 1, 11, 59.9473610, 10.7182490, 0, 105.42, 134.15, 7.11, 201.36, -208, -853, 21650
447000, 1, 11, 59.9473040, 10.7182040, 0, 105.16, 133.9, 7.23, 202.27, 157, -555, 21105
448000, 1, 11, 59.9472390, 10.7181550, 0, 104.73, 133.54, 7.7, 201.39, 32, -632, 20636
449000, 1, 10, 59.9471660, 10.7181010, 0, 104.39, 133.07, 8.39, 201.39, 11, -666, 20184
450000, 1, 11, 59.9470980, 10.7180480, 0, 103.88, 132.54, 8.91, 199.8, 196, -663, 20084
451000, 1, 11, 59.9470210, 10.7179930, 0, 103.11, 131.97, 9.09, 200.43, 226, -600, 19887
452000, 1, 11, 59.9469450, 10.7179360, 0, 101.99, 131.4, 9.34, 200.76, 21, -611, 19645
453000, 1, 11, 59.9468690, 10.7178760, 0, 102.08, 130.78, 9.79, 200.16, 82, -592, 19454
454000, 1, 11, 59.9467850, 10.7178160, 0, 101.31, 130.15, 10.13, 199.11, 196, -428, 19379
455000, 1, 11, 59.9466930, 10.7177550, 0, 100.37, 129.47, 10.48, 199.6, 210, -402, 19428
456000, 1, 11, 59.9465980, 10.7176900, 0, 99.77, 128.17, 10.75, 200.4, -58, -387, 19168
457000, 1, 11, 59.9464910, 10.7176300, 0, 98.92, 126.67, 10.97, 198.91, 73, -459, 18920
458000, 1, 10, 59.9463810, 10.7175710, 0, 98.06, 124.62, 11.18, 197.93, 31, -398, 19018
459000, 1, 10, 59.9462780, 10.7175100, 0, 97.55, 123.42, 11.04, 198.32, -215, -143, 18616
460000, 1, 6, 59.9461820, 10.7174640, 0, 97.46, 122.97, 9.91, 191.35, 293, 125, 18819
461000, 1, 6, 59.9460980, 10.7174280, 0, 97.38, 122.43, 10.37, 191.2, 244, -12, 18816
462000, 0, 5, 59.9460980, 10.7174280, 0, 97.63, 122.03, 10.61, 192.38, 160, -140, 18716
463000, 1, 6, 59.9459150, 10.7173360, 0, 97.12, 121.64, 10.36, 194.96, -64, -86, 18560
464000, 1, 7, 59.9458240, 10.7172880, 0, 96.52, 121.23, 10.05, 196.95, 113, -67, 18518
465000, 1, 9, 59.9457280, 10.7172730, 0, 96.44, 120.72, 10.33, 190.12, 221, -221, 18726
466000, 1, 10, 59.9456250, 10.7172170, 0, 96.44, 120.2, 9.84, 188.65, 205, -158, 18669
467000, 1, 10, 59.9455410, 10.7171880, 0, 96.44, 119.72, 9.69, 190, 88, -96, 18568
468000, 1, 10, 59.9454570, 10.7171510, 0, 96.44, 119.31, 9.17, 195.08, 214, -48, 18629
469000, 1, 10, 59.9453810, 10.7171080, 0, 96.52, 118.94, 8.67, 196.43, 78, -117, 18616
470000, 1, 11, 59.9453050, 10.7170600, 0, 96.09, 118.68, 8.46, 197.26, -28, -204, 18494
471000, 1, 11, 59.9452360, 10.7170250, 0, 95.58, 118.49, 8.12, 191.83, -1, -93, 18516
472000, 1, 11, 59.9451640, 10.7169960, 0, 95.5, 118.33, 7.82, 191.32, 86, -77, 18506
473000, 1, 11, 59.9450950, 10.7169670, 0, 95.5, 118.22, 7.87, 192.57, -57, -131, 18467
474000, 1, 11, 59.9450230, 10.7169330, 0, 94.9, 118.16, 7.92, 193.88, 106, -235, 18475
475000, 1, 11, 59.9449620, 10.7168980, 0, 94.64, 118.14, 7.99, 194.97, 70, -98, 18451
476000, 1, 11, 59.9448890, 10.7168640, 0, 94.21, 118.15, 8.12, 193.2, -166, -222, 18079
477000, 1, 11, 59.9448200, 10.7168350, 0, 93.79, 118.15, 8.15, 190.44, 828, -180, 18538
478000, 1, 11, 59.9447440, 10.7168090, 0, 93.87, 118.24, 7.89, 189.64, 382, -252, 18997
479000, 1, 11, 59.9446720, 10.7167840, 0, 93.45, 118.45, 7.55, 190.8, -1, -236, 18690
480000, 1, 11, 59.9446070, 10.7167550, 0, 93.27, 118.74, 8.18, 193.45, 71, -173, 18556
481000, 1, 11, 59.9445380, 10.7167190, 0, 92.76, 118.95, 8.47, 194.76, 28, -419, 18464
482000, 1, 11, 59.9444620, 10.7166810, 0, 92.25, 119.09, 8.31, 194.84, 232, -415, 18623
483000, 1, 11, 59.9443890, 10.7166430, 0, 91.65, 119.17, 8.63, 194.21, 233, -569, 18661
484000, 1, 11, 59.9443130, 10.7166080, 0, 91.39, 119.2, 8.52, 192.18, 61, -543, 18406
485000, 1, 11, 59.9442440, 10.7165730, 0, 90.97, 118.93, 8.75, 194.76, 306, -371, 18549
486000, 1, 10, 59.9441680, 10.7165230, 0, 90.37, 118.42, 8.84, 200.35, 264, -669, 18607
487000, 1, 10, 59.9440960, 10.7164710, 0, 89.52, 117.82, 8.08, 200.26, 873, -1130, 18962
488000, 1, 10, 59.9440270, 10.7164280, 0, 89.09, 117.27, 6.12, 199.3, 913, -1124, 21321
489000, 1, 10, 59.9439890, 10.7163880, 0, 88.58, 116.77, 3.97, 202.4, -270, 97, 22221
490000, 1, 10, 59.9439700, 10.7163450, 0, 88.58, 116.36, 3.35, 235.37, 762, 325, 23302
491000, 1, 10, 59.9439510, 10.7162830, 0, 88.66, 115.25, 3.05, 243.8, 154, 537, 24337
492000, 1, 11, 59.9439280, 10.7162470, 0, 88.83, 115.79, 2.46, 241.39, -32, 351, 24131
493000, 1, 11, 59.9439090, 10.7162000, 0, 88.92, 116.29, 2.83, 262.37, 443, 321, 23816
494000, 1, 11, 59.9438900, 10.7161260, 0, 89.09, 116.24, 3.13, 268.71, 121, 320, 23473
495000, 1, 11, 59.9438710, 10.7160600, 0, 89, 115.14, 3.04, 273.19, -16, -157, 22385
496000, 1, 11, 59.9438480, 10.7160110, 0, 89.09, 114.47, 3.14, 275.27, 16, -83, 21970
497000, 1, 10, 59.9438320, 10.7159700, 0, 89.26, 113.45, 2.97, 277.48, 384, -86, 22165
498000, 1, 11, 59.9438290, 10.7159110, 0, 89.26, 113.64, 2.73, 282.84, 106, 137, 22225
499000, 1, 10, 59.9438100, 10.7158160, 0, 89.43, 111.87, 2.76, 279.71, -42, 69, 20969
500000, 1, 11, 59.9437940, 10.7157480, 0, 89.26, 109.56, 2.78, 267.45, 170, 174, 20796
501000, 1, 11, 59.9437750, 10.7156920, 0, 89.43, 108, 2.55, 252.96, -106, 57, 19527
502000, 1, 11, 59.9437640, 10.7156500, 0, 89.43, 108.07, 2.24, 243.15, 75, 29, 19311
503000, 1, 11, 59.9437450, 10.7156010, 0, 89.6, 106.48, 2.58, 250.73, -178, -46, 17414
504000, 1, 11, 59.9437370, 10.7155560, 0, 89.52, 105.69, 1.92, 241.88, 225, -8, 14382
505000, 1, 11, 59.9437290, 10.7155430, 0, 89.34, 104.68, 0.9, 228.21, -115, -289, 14108
506000, 1, 11, 59.9437290, 10.7155350, 0, 89.09, 104.49, 0.6, 198, -750, 98, 15988
507000, 1, 11, 59.9437370, 10.7155360, 0, 89.17, 105.3, 0.4, 196.55, -715, -13, 15928
508000, 1, 10, 59.9437370, 10.7155380, 0, 89.26, 105.7, 0.29, 203.87, -784, -158, 15737
509000, 1, 11, 59.9437370, 10.7155350, 0, 89.43, 105.94, 0.27, 241.39, -969, -309, 15826
510000, 1, 11, 59.9437290, 10.7155350, 0, 89.52, 105.96, 0.31, 237.22, -1004, -375, 16229
511000, 1, 11, 59.9437290, 10.7155350, 0, 89.43, 105.97, 0.23, 234.69, -960, -347, 16717
512000, 1, 11, 59.9437290, 10.7155310, 0, 89.26, 105.97, 0.18, 234.01, -841, -299, 17161
513000, 1, 11, 59.9437290, 10.7155290, 0, 89.26, 105.97, 0.14, 234.13, -890, -278, 17735
514000, 1, 11, 59.9437290, 10.7155280, 0, 89.26, 105.97, 0.11, 234.85, -696, -228, 18113
515000, 1, 11, 59.9437290, 10.7155250, 0, 89.52, 105.98, 0.12, 235.77, -429, -174, 18546
516000, 1, 11, 59.9437290, 10.7155230, 0, 89.52, 105.97, 0.15, 235.48, -167, -142, 17852
517000, 1, 11, 59.9437290, 10.7155210, 0, 89.52, 105.98, 0.16, 234.73, 947, -301, 18720
518000, 1, 11, 59.9437260, 10.7155180, 0, 89.09, 105.98, 0.17, 238.77, 2137, -563, 19443
519000, 1, 11, 59.9437260, 10.7155150, 0, 89.17, 105.97, 0.16, 244.87, 2188, -524, 19233
520000, 1, 11, 59.9437260, 10.7155110, 0, 89.26, 105.97, 0.15, 247.74, 2198, -514, 19093
521000, 1, 11, 59.9437260, 10.7155080, 0, 89.43, 105.96, 0.18, 250.47, 2203, -521, 18979
522000, 1, 11, 59.9437260, 10.7155050, 0, 89.43, 105.95, 0.18, 252.6, 2206, -520, 18894
523000, 1, 11, 59.9437260, 10.7155030, 0, 89.34, 105.94, 0.18, 251.94, 2208, -508, 18809
524000, 1, 11, 59.9437260, 10.7155000, 0, 89.17, 105.93, 0.14, 249.67, 2206, -506, 18778
525000, 1, 11, 59.9437260, 10.7154980, 0, 89.17, 105.92, 0.14, 243.77, 2205, -507, 18718
526000, 1, 11, 59.9437260, 10.7154960, 0, 89.17, 105.91, 0.18, 235.07, 2207, -524, 18666
527000, 1, 11, 59.9437180, 10.7154950, 0, 89.34, 105.89, 0.22, 227.24, 2209, -532, 18623
