time, fix, sats, latitute, longitude, sonar, alt, gps_alt, speed, CRS, roll, pitch, yaw
0, 1, 9, 59.9632190, 10.7357400, 0, 196.15, 180.96, 0.14, 61.81, -728, -134, 17909
100, 1, 9, 59.9632190, 10.7357400, 0, 196.15, 181.04, 0.14, 62.71, -727, -134, 17909
200, 1, 9, 59.9632190, 10.7357400, 0, 196.15, 181.04, 0.14, 62.71, -730, -136, 17905
300, 1, 9, 59.9632190, 10.7357400, 0, 196.15, 181.04, 0.14, 62.71, -728, -136, 17907
400, 1, 9, 59.9632190, 10.7357410, 0, 196.15, 181.13, 0.17, 64.04, -728, -141, 17900
500, 1, 9, 59.9632190, 10.7357410, 0, 196.15, 181.13, 0.17, 64.04, -727, -143, 17898
600, 1, 9, 59.9632190, 10.7357410, 0, 196.15, 181.21, 0.19, 65.56, -730, -141, 17904
700, 1, 9, 59.9632190, 10.7357410, 0, 196.15, 181.21, 0.19, 65.56, -729, -151, 17896
800, 1, 9, 59.9632190, 10.7357410, 0, 196.15, 181.21, 0.19, 65.56, -731, -154, 17900
900, 1, 9, 59.9632190, 10.7357440, 0, 196.15, 181.3, 0.21, 67.23, -729, -156, 17898
1000, 1, 9, 59.9632190, 10.7357440, 0, 196.15, 181.3, 0.21, 67.23, -731, -158, 17899
1100, 1, 9, 59.9632190, 10.7357440, 0, 196.15, 181.38, 0.22, 68.91, -731, -161, 17897
1200, 1, 9, 59.9632190, 10.7357440, 0, 196.15, 181.38, 0.22, 68.91, -730, -163, 17898
1300, 1, 9, 59.9632190, 10.7357440, 0, 196.15, 181.38, 0.22, 68.91, -731, -166, 17898
1400, 1, 9, 59.9632190, 10.7357440, 0, 196.23, 181.48, 0.26, 70.56, -731, -169, 17898
1500, 1, 9, 59.9632190, 10.7357440, 0, 196.23, 181.48, 0.26, 70.56, -732, -173, 17898
1600, 1, 9, 59.9632190, 10.7357450, 0, 196.23, 181.57, 0.28, 72.16, -732, -176, 17898
1700, 1, 9, 59.9632190, 10.7357450, 0, 196.23, 181.57, 0.28, 72.16, -732, -180, 17898
1800, 1, 9, 59.9632190, 10.7357450, 0, 196.23, 181.57, 0.28, 72.16, -731, -181, 17898
1900, 1, 9, 59.9632190, 10.7357450, 0, 196.23, 181.66, 0.28, 73.74, -732, -181, 17898
2000, 1, 9, 59.9632190, 10.7357450, 0, 196.32, 181.66, 0.28, 73.74, -732, -181, 17898
2100, 1, 9, 59.9632190, 10.7357480, 0, 196.32, 181.76, 0.28, 75.21, -732, -180, 17898
2200, 1, 9, 59.9632190, 10.7357480, 0, 196.32, 181.76, 0.28, 75.21, -732, -179, 17898
2300, 1, 9, 59.9632190, 10.7357480, 0, 196.41, 181.76, 0.28, 75.21, -733, -177, 17898
2400, 1, 9, 59.9632190, 10.7357500, 0, 196.41, 181.85, 0.28, 76.55, -732, -176, 17898
2500, 1, 9, 59.9632190, 10.7357500, 0, 196.41, 181.85, 0.28, 76.55, -732, -174, 17898
2600, 1, 9, 59.9632190, 10.7357510, 0, 196.41, 181.95, 0.26, 77.71, -731, -171, 17898
2700, 1, 9, 59.9632190, 10.7357510, 0, 196.41, 181.95, 0.26, 77.71, -732, -168, 17897
2800, 1, 9, 59.9632190, 10.7357510, 0, 196.41, 181.95, 0.26, 77.71, -731, -164, 17898
2900, 1, 9, 59.9632190, 10.7357530, 0, 196.41, 182.04, 0.23, 78.6, -732, -159, 17897
3000, 1, 9, 59.9632190, 10.7357530, 0, 196.41, 182.04, 0.23, 78.6, -732, -155, 17898
3100, 1, 9, 59.9632190, 10.7357530, 0, 196.32, 182.14, 0.21, 79.29, -731, -150, 17898
3200, 1, 9, 59.9632190, 10.7357530, 0, 196.32, 182.14, 0.21, 79.29, -731, -147, 17898
3300, 1, 9, 59.9632190, 10.7357530, 0, 196.41, 182.14, 0.21, 79.29, -731, -143, 17898
3400, 1, 9, 59.9632190, 10.7357550, 0, 196.41, 182.24, 0.21, 79.73, -731, -141, 17898
3500, 1, 9, 59.9632190, 10.7357550, 0, 196.41, 182.24, 0.21, 79.73, -731, -141, 17898
3600, 1, 9, 59.9632190, 10.7357550, 0, 196.41, 182.34, 0.23, 80.09, -731, -142, 17898
3700, 1, 9, 59.9632190, 10.7357550, 0, 196.41, 182.34, 0.23, 80.09, -731, -144, 17898
3800, 1, 9, 59.9632190, 10.7357550, 0, 196.41, 182.34, 0.23, 80.09, -731, -145, 17898
3900, 1, 9, 59.9632190, 10.7357560, 0, 196.41, 182.45, 0.24, 80.29, -731, -146, 17898
4000, 1, 9, 59.9632190, 10.7357560, 0, 196.41, 182.45, 0.24, 80.29, -732, -148, 17898
4100, 1, 9, 59.9632190, 10.7357590, 0, 196.41, 182.55, 0.26, 80.74, -732, -151, 17898
4200, 1, 9, 59.9632190, 10.7357590, 0, 196.32, 182.55, 0.26, 80.74, -732, -153, 17898
4300, 1, 9, 59.9632190, 10.7357590, 0, 196.32, 182.55, 0.26, 80.74, -733, -156, 17898
4400, 1, 9, 59.9632190, 10.7357600, 0, 196.32, 182.65, 0.27, 81.45, -733, -158, 17898
4500, 1, 9, 59.9632190, 10.7357600, 0, 196.23, 182.65, 0.27, 81.45, -733, -160, 17898
4600, 1, 9, 59.9632190, 10.7357600, 0, 196.15, 182.75, 0.27, 82.25, -732, -161, 17897
4700, 1, 9, 59.9632190, 10.7357600, 0, 196.15, 182.75, 0.27, 82.25, -733, -162, 17897
4800, 1, 9, 59.9632190, 10.7357600, 0, 196.15, 182.75, 0.27, 82.25, -732, -162, 17898
4900, 1, 9, 59.9632190, 10.7357610, 0, 196.06, 182.85, 0.27, 83.16, -732, -162, 17898
5000, 1, 9, 59.9632190, 10.7357610, 0, 196.06, 182.85, 0.27, 83.16, -732, -162, 17898
5100, 1, 9, 59.9632190, 10.7357640, 0, 196.06, 182.95, 0.26, 83.95, -731, -160, 17898
5200, 1, 9, 59.9632190, 10.7357640, 0, 196.06, 182.95, 0.26, 83.95, -731, -158, 17898
5300, 1, 9, 59.9632190, 10.7357640, 0, 196.06, 182.95, 0.26, 83.95, -731, -157, 17898
5400, 1, 9, 59.9632190, 10.7357650, 0, 196.06, 183.05, 0.28, 84.81, -731, -158, 17898
5500, 1, 9, 59.9632190, 10.7357650, 0, 195.97, 183.05, 0.28, 84.81, -732, -159, 17898
5600, 1, 9, 59.9632190, 10.7357650, 0, 195.97, 183.14, 0.29, 85.57, -732, -161, 17898
5700, 1, 9, 59.9632190, 10.7357650, 0, 196.06, 183.14, 0.29, 85.57, -731, -161, 17898
5800, 1, 9, 59.9632190, 10.7357650, 0, 196.06, 183.14, 0.29, 85.57, -731, -162, 17898
5900, 1, 9, 59.9632190, 10.7357660, 0, 196.06, 183.24, 0.29, 86.18, -731, -162, 17898
6000, 1, 9, 59.9632190, 10.7357660, 0, 196.15, 183.24, 0.29, 86.18, -731, -162, 17898
6100, 1, 9, 59.9632190, 10.7357680, 0, 196.15, 183.35, 0.28, 86.58, -731, -161, 17898
6200, 1, 9, 59.9632190, 10.7357680, 0, 196.15, 183.35, 0.28, 86.58, -731, -160, 17898
6300, 1, 9, 59.9632190, 10.7357680, 0, 196.15, 183.35, 0.28, 86.58, -731, -158, 17898
6400, 1, 9, 59.9632190, 10.7357690, 0, 196.15, 183.45, 0.28, 86.72, -732, -157, 17898
6500, 1, 9, 59.9632190, 10.7357690, 0, 196.15, 183.45, 0.28, 86.72, -732, -156, 17898
6600, 1, 9, 59.9632190, 10.7357710, 0, 196.15, 183.55, 0.28, 86.69, -732, -156, 17898
6700, 1, 9, 59.9632190, 10.7357710, 0, 196.15, 183.55, 0.28, 86.69, -732, -155, 17898
6800, 1, 9, 59.9632190, 10.7357710, 0, 196.15, 183.55, 0.28, 86.69, -733, -154, 17898
6900, 1, 9, 59.9632190, 10.7357710, 0, 196.15, 183.66, 0.28, 86.51, -732, -154, 17898
7000, 1, 9, 59.9632190, 10.7357710, 0, 196.23, 183.66, 0.28, 86.51, -732, -153, 17898
7100, 1, 9, 59.9632190, 10.7357730, 0, 196.23, 183.76, 0.27, 86.14, -732, -152, 17898
7200, 1, 9, 59.9632190, 10.7357730, 0, 196.23, 183.76, 0.27, 86.14, -732, -152, 17898
7300, 1, 9, 59.9632190, 10.7357730, 0, 196.23, 183.76, 0.27, 86.14, -732, -151, 17898
7400, 1, 9, 59.9632190, 10.7357750, 0, 196.23, 183.85, 0.27, 85.72, -732, -150, 17898
7500, 1, 9, 59.9632190, 10.7357750, 0, 196.23, 183.85, 0.27, 85.72, -732, -147, 17898
7600, 1, 9, 59.9632190, 10.7357760, 0, 196.23, 183.95, 0.23, 85.35, -732, -143, 17898
7700, 1, 9, 59.9632190, 10.7357760, 0, 196.15, 183.95, 0.23, 85.35, -731, -139, 17898
7800, 1, 9, 59.9632190, 10.7357760, 0, 196.06, 183.95, 0.23, 85.35, -732, -135, 17898
7900, 1, 9, 59.9632190, 10.7357760, 0, 196.15, 184.05, 0.21, 84.97, -732, -132, 17898
8000, 1, 9, 59.9632190, 10.7357760, 0, 196.15, 184.05, 0.21, 84.97, -732, -130, 17898
8100, 1, 9, 59.9632190, 10.7357780, 0, 196.23, 184.14, 0.21, 84.65, -732, -129, 17898
8200, 1, 9, 59.9632190, 10.7357780, 0, 196.23, 184.14, 0.21, 84.65, -732, -129, 17898
8300, 1, 9, 59.9632190, 10.7357780, 0, 196.23, 184.14, 0.21, 84.65, -733, -128, 17898
8400, 1, 9, 59.9632190, 10.7357780, 0, 196.23, 184.25, 0.19, 84.37, -733, -127, 17898
8500, 1, 9, 59.9632190, 10.7357780, 0, 196.32, 184.25, 0.19, 84.37, -732, -128, 17898
8600, 1, 9, 59.9632190, 10.7357800, 0, 196.32, 184.35, 0.21, 84.09, -732, -130, 17897
8700, 1, 9, 59.9632190, 10.7357800, 0, 196.23, 184.35, 0.21, 84.09, -732, -132, 17897
8800, 1, 9, 59.9632190, 10.7357800, 0, 196.32, 184.35, 0.21, 84.09, -733, -134, 17897
8900, 1, 9, 59.9632190, 10.7357800, 0, 196.32, 184.47, 0.22, 83.85, -733, -137, 17897
9000, 1, 9, 59.9632190, 10.7357800, 0, 196.32, 184.47, 0.22, 83.85, -734, -140, 17897
9100, 1, 9, 59.9632190, 10.7357810, 0, 196.32, 184.59, 0.23, 83.61, -732, -143, 17889
9200, 1, 9, 59.9632190, 10.7357810, 0, 196.32, 184.59, 0.23, 83.61, -736, -144, 17895
9300, 1, 9, 59.9632190, 10.7357810, 0, 196.41, 184.59, 0.23, 83.61, -736, -145, 17901
9400, 1, 9, 59.9632190, 10.7357840, 0, 196.41, 184.7, 0.24, 83.4, -732, -150, 17880
9500, 1, 9, 59.9632190, 10.7357840, 0, 196.41, 184.7, 0.24, 83.4, -773, -150, 17956
9600, 1, 9, 59.9632190, 10.7357840, 0, 196.41, 184.81, 0.23, 83.06, -773, -156, 17957
9700, 1, 9, 59.9632190, 10.7357840, 0, 196.41, 184.81, 0.23, 83.06, -610, -141, 18037
9800, 1, 9, 59.9632190, 10.7357840, 0, 196.41, 184.81, 0.23, 83.06, -296, -108, 18129
9900, 1, 9, 59.9632190, 10.7357850, 0, 196.41, 184.92, 0.22, 82.63, -109, -84, 18218
10000, 1, 9, 59.9632190, 10.7357850, 0, 196.41, 184.92, 0.22, 82.63, -14, -71, 18152
10100, 1, 9, 59.9632190, 10.7357850, 0, 196.41, 185.04, 0.21, 82.07, 8, -71, 18139
10200, 1, 9, 59.9632190, 10.7357850, 0, 196.41, 185.04, 0.21, 82.07, -33, -82, 18138
10300, 1, 9, 59.9632190, 10.7357850, 0, 196.41, 185.04, 0.21, 82.07, -76, -88, 18119
10400, 1, 9, 59.9632190, 10.7357850, 0, 196.41, 185.14, 0.23, 81.61, -66, -86, 18084
10500, 1, 9, 59.9632190, 10.7357850, 0, 196.32, 185.14, 0.23, 81.61, -90, -85, 18068
10600, 1, 9, 59.9632190, 10.7357880, 0, 196.32, 185.25, 0.26, 81.18, -143, -92, 18028
10700, 1, 9, 59.9632190, 10.7357880, 0, 196.23, 185.25, 0.26, 81.18, -176, -106, 18033
10800, 1, 9, 59.9632190, 10.7357880, 0, 196.23, 185.25, 0.26, 81.18, -133, -114, 18126
10900, 1, 9, 59.9632190, 10.7357900, 0, 196.15, 185.36, 0.28, 80.85, 40, -127, 18273
11000, 1, 9, 59.9632190, 10.7357900, 0, 196.15, 185.36, 0.28, 80.85, 57, -88, 18503
11100, 1, 9, 59.9632190, 10.7357910, 0, 196.15, 185.47, 0.25, 80.21, -186, -72, 18747
11200, 1, 9, 59.9632190, 10.7357910, 0, 196.06, 185.47, 0.25, 80.21, -346, -56, 19206
11300, 1, 9, 59.9632190, 10.7357910, 0, 196.15, 185.47, 0.25, 80.21, -552, 2, 19739
11400, 1, 9, 59.9632190, 10.7357910, 0, 196.15, 185.58, 0.21, 79.21, -785, 87, 20167
11500, 1, 9, 59.9632190, 10.7357910, 0, 196.15, 185.58, 0.21, 79.21, -967, 80, 20364
11600, 1, 9, 59.9632260, 10.7357930, 0, 196.15, 185.69, 0.3, 76.08, -1076, -88, 20309
11700, 1, 9, 59.9632260, 10.7357930, 0, 196.15, 185.69, 0.3, 76.08, -1051, -252, 20323
11800, 1, 9, 59.9632260, 10.7357930, 0, 196.06, 185.69, 0.3, 76.08, -850, -174, 20774
11900, 1, 9, 59.9632260, 10.7357950, 0, 196.06, 185.83, 0.3, 72.99, -740, -94, 21008
12000, 1, 9, 59.9632260, 10.7357950, 0, 196.15, 185.83, 0.3, 72.99, -608, -47, 21273
12100, 1, 9, 59.9632260, 10.7357990, 0, 196.15, 186.06, 0.29, 70.66, -488, -5, 21752
12200, 1, 9, 59.9632260, 10.7357990, 0, 196.15, 186.06, 0.29, 70.66, -344, 47, 22206
12300, 1, 9, 59.9632260, 10.7357990, 0, 196.15, 186.06, 0.29, 70.66, -181, 113, 22577
12400, 1, 9, 59.9632260, 10.7358010, 0, 196.15, 186.27, 0.2, 69.96, -65, 110, 22688
12500, 1, 9, 59.9632260, 10.7358010, 0, 196.15, 186.27, 0.2, 69.96, 55, 97, 22807
12600, 1, 9, 59.9632260, 10.7358040, 0, 196.15, 186.48, 0.17, 69.88, 160, 124, 23020
12700, 1, 9, 59.9632260, 10.7358040, 0, 196.15, 186.48, 0.17, 69.88, 196, 176, 23041
12800, 1, 9, 59.9632260, 10.7358040, 0, 196.15, 186.48, 0.17, 69.88, 194, 222, 22771
12900, 1, 9, 59.9632260, 10.7358050, 0, 196.15, 186.66, 0.14, 69.78, 216, 270, 22224
13000, 1, 9, 59.9632260, 10.7358050, 0, 196.15, 186.66, 0.14, 69.78, 298, 287, 21518
13100, 1, 9, 59.9632260, 10.7358080, 0, 196.15, 186.78, 0.13, 70.33, 403, 303, 20764
13200, 1, 9, 59.9632260, 10.7358080, 0, 196.23, 186.78, 0.13, 70.33, 456, 324, 20018
13300, 1, 9, 59.9632260, 10.7358080, 0, 196.23, 186.78, 0.13, 70.33, 409, 351, 19127
13400, 1, 9, 59.9632260, 10.7358090, 0, 196.23, 186.92, 0.12, 71.3, 312, 316, 18343
13500, 1, 9, 59.9632260, 10.7358090, 0, 196.15, 186.92, 0.12, 71.3, 218, 269, 17768
13600, 1, 9, 59.9632260, 10.7358130, 0, 196.23, 187.06, 0.14, 74.06, 149, 254, 17228
13700, 1, 9, 59.9632260, 10.7358130, 0, 196.23, 187.06, 0.14, 74.06, 143, 221, 16837
13800, 1, 9, 59.9632260, 10.7358130, 0, 196.23, 187.06, 0.14, 74.06, 77, 158, 16708
13900, 1, 9, 59.9632260, 10.7358150, 0, 196.15, 187.19, 0.14, 76.91, -79, 86, 16496
14000, 1, 9, 59.9632260, 10.7358150, 0, 196.15, 187.19, 0.14, 76.91, -184, 39, 16162
14100, 1, 9, 59.9632260, 10.7358180, 0, 196.15, 187.62, 0.16, 80.24, -254, 24, 16056
14200, 1, 9, 59.9632260, 10.7358180, 0, 196.15, 187.62, 0.16, 80.24, -333, 13, 16473
14300, 1, 9, 59.9632260, 10.7358180, 0, 196.15, 187.62, 0.16, 80.24, -440, 3, 17044
14400, 1, 9, 59.9632190, 10.7358260, 0, 196.15, 187.73, 0.35, 84.62, -493, 2, 17680
14500, 1, 9, 59.9632190, 10.7358260, 0, 196.15, 187.73, 0.35, 84.62, -512, 41, 18182
14600, 1, 9, 59.9632190, 10.7358280, 0, 196.23, 187.82, 0.39, 89, -508, 35, 18400
14700, 1, 9, 59.9632190, 10.7358280, 0, 196.23, 187.82, 0.39, 89, -466, 30, 18388
14800, 1, 9, 59.9632190, 10.7358280, 0, 196.32, 187.82, 0.39, 89, -356, 36, 18343
14900, 1, 9, 59.9632190, 10.7358260, 0, 196.32, 187.42, 0.4, 93.09, -268, 39, 18261
15000, 1, 9, 59.9632190, 10.7358260, 0, 196.32, 187.42, 0.4, 93.09, -231, -68, 18229
15100, 1, 9, 59.9632190, 10.7358260, 0, 196.32, 187.42, 0.4, 93.09, -276, -83, 18301
15200, 1, 9, 59.9632110, 10.7358240, 0, 196.32, 187.02, 0.38, 96.85, -315, -83, 18256
15300, 1, 9, 59.9632110, 10.7358240, 0, 196.32, 187.02, 0.38, 96.85, -344, -88, 18468
15400, 1, 9, 59.9632110, 10.7358210, 0, 196.32, 186.69, 0.37, 100.62, -364, -107, 18895
15500, 1, 9, 59.9632110, 10.7358210, 0, 196.32, 186.69, 0.37, 100.62, -316, -132, 19238
15600, 1, 9, 59.9632110, 10.7358210, 0, 196.23, 186.69, 0.37, 100.62, -225, -77, 19496
15700, 1, 9, 59.9632110, 10.7358180, 0, 196.23, 186.5, 0.36, 104.1, -170, -55, 19706
15800, 1, 9, 59.9632110, 10.7358180, 0, 196.23, 186.5, 0.36, 104.1, -132, -19, 19896
15900, 1, 9, 59.9632110, 10.7358160, 0, 196.23, 186.34, 0.34, 107.18, -115, 27, 20210
16000, 1, 9, 59.9632110, 10.7358160, 0, 196.23, 186.34, 0.34, 107.18, -178, 137, 20240
16100, 1, 9, 59.9632110, 10.7358160, 0, 196.23, 186.34, 0.34, 107.18, -192, 205, 20111
16200, 1, 9, 59.9632070, 10.7358150, 0, 196.23, 186.1, 0.26, 109.71, -112, 234, 20119
16300, 1, 9, 59.9632070, 10.7358150, 0, 196.23, 186.1, 0.26, 109.71, -51, 233, 20251
16400, 1, 9, 59.9632070, 10.7358130, 0, 196.23, 185.88, 0.25, 111.81, -27, 225, 20336
16500, 1, 9, 59.9632070, 10.7358130, 0, 196.15, 185.88, 0.25, 111.81, -9, 174, 20380
16600, 1, 9, 59.9632070, 10.7358130, 0, 196.15, 185.88, 0.25, 111.81, 22, 149, 20428
16700, 1, 9, 59.9632070, 10.7358110, 0, 196.15, 185.68, 0.23, 113.63, -36, 163, 20493
16800, 1, 9, 59.9632070, 10.7358110, 0, 196.06, 185.68, 0.23, 113.63, -37, 232, 20525
16900, 1, 9, 59.9632000, 10.7358090, 0, 196.23, 185.58, 0.22, 115.42, -26, 248, 20518
17000, 1, 9, 59.9632000, 10.7358090, 0, 196.15, 185.58, 0.22, 115.42, -58, 258, 20414
17100, 1, 9, 59.9632000, 10.7358090, 0, 196.15, 185.58, 0.22, 115.42, -153, 299, 20144
17200, 1, 9, 59.9632000, 10.7358080, 0, 196.06, 185.57, 0.2, 116.69, -150, 262, 19911
17300, 1, 9, 59.9632000, 10.7358080, 0, 196.06, 185.57, 0.2, 116.69, -123, 249, 19755
17400, 1, 9, 59.9631920, 10.7358060, 0, 196.06, 185.53, 0.18, 118.08, -117, 321, 19437
17500, 1, 9, 59.9631920, 10.7358060, 0, 196.06, 185.53, 0.18, 118.08, -153, 310, 19121
17600, 1, 9, 59.9631920, 10.7358050, 0, 196.06, 185.39, 0.16, 119.59, -174, 272, 18810
17700, 1, 9, 59.9631920, 10.7358050, 0, 196.06, 185.39, 0.16, 119.59, -129, 275, 18557
17800, 1, 9, 59.9631920, 10.7358050, 0, 196.15, 185.39, 0.16, 119.59, -116, 254, 18312
17900, 1, 9, 59.9631920, 10.7358040, 0, 196.15, 185.38, 0.14, 120.85, -201, 226, 18270
18000, 1, 9, 59.9631920, 10.7358040, 0, 196.15, 185.38, 0.14, 120.85, -237, 244, 18455
18100, 1, 9, 59.9631880, 10.7358010, 0, 196.15, 185.36, 0.12, 121.97, -242, 257, 18683
18200, 1, 9, 59.9631880, 10.7358010, 0, 196.15, 185.36, 0.12, 121.97, -235, 241, 18721
18300, 1, 9, 59.9631880, 10.7358010, 0, 196.15, 185.36, 0.12, 121.97, -357, 251, 18780
18400, 1, 9, 59.9631880, 10.7358010, 0, 196.15, 185.29, 0.1, 123.43, -469, 347, 18903
18500, 1, 9, 59.9631880, 10.7358010, 0, 196.06, 185.29, 0.1, 123.43, -443, 369, 19075
18600, 1, 8, 59.9631880, 10.7358000, 0, 196.15, 185.22, 0.09, 125.46, -325, 394, 19351
18700, 1, 8, 59.9631880, 10.7358000, 0, 196.15, 185.22, 0.09, 125.46, -374, 497, 19534
18800, 1, 8, 59.9631880, 10.7358000, 0, 196.15, 185.22, 0.09, 125.46, -474, 628, 19727
18900, 1, 8, 59.9631880, 10.7357990, 0, 196.15, 185.18, 0.09, 128.12, -426, 689, 19690
19000, 1, 8, 59.9631880, 10.7357990, 0, 196.15, 185.18, 0.09, 128.12, -381, 660, 19569
19100, 1, 8, 59.9631810, 10.7357990, 0, 196.15, 185.1, 0.1, 131.53, -318, 560, 19673
19200, 1, 8, 59.9631810, 10.7357990, 0, 196.15, 185.1, 0.1, 131.53, -330, 481, 19420
19300, 1, 8, 59.9631810, 10.7357990, 0, 196.23, 185.1, 0.1, 131.53, -338, 472, 18655
19400, 1, 8, 59.9631810, 10.7357990, 0, 196.23, 185.04, 0.12, 135.35, -290, 398, 17731
19500, 1, 8, 59.9631810, 10.7357990, 0, 196.23, 185.04, 0.12, 135.35, -122, 357, 17042
19600, 1, 8, 59.9631810, 10.7357990, 0, 196.23, 185.07, 0.18, 139.52, -97, 340, 16740
19700, 1, 8, 59.9631810, 10.7357990, 0, 196.23, 185.07, 0.18, 139.52, -5, 298, 16918
19800, 1, 8, 59.9631810, 10.7357990, 0, 196.23, 185.07, 0.18, 139.52, 69, 238, 17498
19900, 1, 9, 59.9631810, 10.7357990, 0, 196.23, 185.11, 0.24, 144.46, 88, 177, 17893
20000, 1, 9, 59.9631810, 10.7357990, 0, 196.23, 185.11, 0.24, 144.46, 156, 79, 17920
20100, 1, 9, 59.9631810, 10.7357960, 0, 196.23, 185.14, 0.36, 150.09, 145, 43, 17589
20200, 1, 9, 59.9631810, 10.7357960, 0, 196.23, 185.14, 0.36, 150.09, 257, 148, 17256
20300, 1, 9, 59.9631810, 10.7357960, 0, 196.23, 185.14, 0.36, 150.09, 367, 191, 17276
20400, 1, 9, 59.9631730, 10.7357990, 0, 196.23, 185.21, 0.38, 155.25, 377, 169, 17638
20500, 1, 9, 59.9631730, 10.7357990, 0, 196.23, 185.21, 0.38, 155.25, 424, 151, 18289
20600, 1, 9, 59.9631690, 10.7358000, 0, 196.23, 185.28, 0.46, 159.34, 437, 103, 19068
20700, 1, 9, 59.9631690, 10.7358000, 0, 196.23, 185.28, 0.46, 159.34, 462, 79, 19567
20800, 1, 9, 59.9631690, 10.7358000, 0, 196.23, 185.28, 0.46, 159.34, 463, 121, 19786
20900, 1, 9, 59.9631690, 10.7357990, 0, 196.23, 185.38, 0.48, 163.73, 388, 129, 19925
21000, 1, 9, 59.9631690, 10.7357990, 0, 196.32, 185.38, 0.48, 163.73, 330, 105, 19965
21100, 1, 9, 59.9631690, 10.7357960, 0, 196.15, 185.41, 0.57, 167.48, 290, 106, 19589
21200, 1, 9, 59.9631690, 10.7357960, 0, 196.15, 185.41, 0.57, 167.48, 225, 118, 18897
21300, 1, 9, 59.9631690, 10.7357960, 0, 196.15, 185.41, 0.57, 167.48, 165, 125, 18068
21400, 1, 9, 59.9631690, 10.7357960, 0, 196.15, 185.45, 0.66, 170.48, 64, 154, 17227
21500, 1, 9, 59.9631690, 10.7357960, 0, 196.15, 185.45, 0.66, 170.48, -9, 149, 16494
21600, 1, 9, 59.9631690, 10.7357960, 0, 196.06, 185.48, 0.77, 172.2, -74, 145, 15915
21700, 1, 9, 59.9631690, 10.7357960, 0, 195.97, 185.48, 0.77, 172.2, -97, 167, 15807
21800, 1, 9, 59.9631690, 10.7357960, 0, 195.97, 185.48, 0.77, 172.2, -109, 161, 15871
21900, 1, 9, 59.9631610, 10.7357960, 0, 195.97, 185.51, 1.06, 172.34, -69, 145, 15852
22000, 1, 9, 59.9631610, 10.7357960, 0, 195.97, 185.51, 1.06, 172.34, -56, 87, 15987
22100, 1, 9, 59.9631610, 10.7357960, 0, 195.97, 185.55, 1.39, 171.83, 44, 22, 15999
22200, 1, 9, 59.9631610, 10.7357960, 0, 195.97, 185.55, 1.39, 171.83, 119, 35, 15832
22300, 1, 9, 59.9631610, 10.7357960, 0, 195.97, 185.55, 1.39, 171.83, 198, 76, 15854
22400, 1, 9, 59.9631540, 10.7357990, 0, 195.97, 185.58, 1.61, 171.24, 306, 8, 16204
22500, 1, 9, 59.9631540, 10.7357990, 0, 195.97, 185.58, 1.61, 171.24, 435, -15, 16746
22600, 1, 9, 59.9631540, 10.7357990, 0, 195.97, 185.58, 1.61, 171.24, 489, -97, 17025
22700, 1, 9, 59.9631540, 10.7358000, 0, 195.89, 185.61, 1.88, 170.25, 573, -102, 16786
22800, 1, 9, 59.9631540, 10.7358000, 0, 195.89, 185.61, 1.88, 170.25, 539, -169, 16743
22900, 1, 10, 59.9631500, 10.7357990, 0, 195.89, 185.67, 1.89, 169.62, 490, -198, 17186
23000, 1, 10, 59.9631500, 10.7357990, 0, 195.97, 185.67, 1.89, 169.62, 479, -223, 17664
23100, 1, 10, 59.9631500, 10.7357990, 0, 195.97, 185.67, 1.89, 169.62, 421, -191, 17724
23200, 1, 10, 59.9631420, 10.7357960, 0, 195.97, 185.71, 1.9, 169.34, 285, -134, 17561
23300, 1, 10, 59.9631420, 10.7357960, 0, 196.06, 185.71, 1.9, 169.34, 190, -126, 17612
23400, 1, 10, 59.9631350, 10.7357930, 0, 196.06, 185.74, 1.89, 168.9, 169, -159, 17579
23500, 1, 10, 59.9631350, 10.7357930, 0, 196.15, 185.74, 1.89, 168.9, 194, -147, 17422
23600, 1, 10, 59.9631350, 10.7357930, 0, 196.15, 185.74, 1.89, 168.9, 168, -106, 17362
23700, 1, 10, 59.9631310, 10.7357900, 0, 196.15, 185.86, 1.8, 168.92, 191, -91, 17428
23800, 1, 10, 59.9631310, 10.7357900, 0, 196.15, 185.86, 1.8, 168.92, 219, 3, 17435
23900, 1, 10, 59.9631230, 10.7357880, 0, 196.15, 185.86, 1.82, 169.3, 234, -17, 17360
24000, 1, 10, 59.9631230, 10.7357880, 0, 196.15, 185.86, 1.82, 169.3, 174, 21, 17342
24100, 1, 10, 59.9631230, 10.7357880, 0, 196.15, 185.86, 1.82, 169.3, 113, 177, 17466
24200, 1, 10, 59.9631160, 10.7357900, 0, 196.23, 185.89, 1.81, 169.62, 44, 135, 17422
24300, 1, 10, 59.9631160, 10.7357900, 0, 196.23, 185.89, 1.81, 169.62, 51, 169, 17152
24400, 1, 10, 59.9631160, 10.7357900, 0, 196.23, 185.93, 1.67, 168.27, 57, 179, 17009
24500, 1, 10, 59.9631160, 10.7357900, 0, 196.23, 185.93, 1.67, 168.27, 7, 116, 16994
24600, 1, 10, 59.9631160, 10.7357900, 0, 196.23, 185.93, 1.67, 168.27, 98, 107, 17056
24700, 1, 10, 59.9631120, 10.7357930, 0, 196.23, 185.96, 2.1, 167.67, 112, 73, 16961
24800, 1, 10, 59.9631120, 10.7357930, 0, 196.23, 185.96, 2.1, 167.67, 106, -36, 17068
24900, 1, 10, 59.9631040, 10.7357950, 0, 196.23, 185.99, 2.47, 166.97, 100, -60, 17311
25000, 1, 10, 59.9631040, 10.7357950, 0, 196.32, 185.99, 2.47, 166.97, 103, -111, 17212
25100, 1, 10, 59.9631040, 10.7357950, 0, 196.32, 185.99, 2.47, 166.97, 109, -203, 16961
25200, 1, 10, 59.9631040, 10.7357990, 0, 196.32, 186.03, 2.71, 166.03, 117, -228, 16763
25300, 1, 10, 59.9631040, 10.7357990, 0, 196.32, 186.03, 2.71, 166.03, 117, -306, 16537
25400, 1, 10, 59.9630970, 10.7358040, 0, 196.32, 186.06, 2.72, 165.14, 137, -294, 16450
25500, 1, 10, 59.9630970, 10.7358040, 0, 196.32, 186.06, 2.72, 165.14, 162, -337, 16589
25600, 1, 10, 59.9630970, 10.7358040, 0, 196.32, 186.06, 2.72, 165.14, 224, -400, 16698
25700, 1, 10, 59.9630930, 10.7358080, 0, 196.32, 186.09, 2.99, 164.38, 278, -441, 16809
25800, 1, 10, 59.9630930, 10.7358080, 0, 196.32, 186.09, 2.99, 164.38, 276, -556, 16896
25900, 1, 10, 59.9630850, 10.7358150, 0, 196.32, 186.11, 3.02, 163.08, 290, -641, 16956
26000, 1, 10, 59.9630850, 10.7358150, 0, 196.32, 186.11, 3.02, 163.08, 268, -671, 17001
26100, 1, 10, 59.9630850, 10.7358150, 0, 196.32, 186.11, 3.02, 163.08, 230, -683, 16998
26200, 1, 10, 59.9630780, 10.7358160, 0, 196.32, 186.25, 2.92, 162.03, 187, -681, 16966
26300, 1, 10, 59.9630780, 10.7358160, 0, 196.32, 186.25, 2.92, 162.03, 125, -656, 16907
26400, 1, 10, 59.9630740, 10.7358210, 0, 196.32, 186.23, 2.8, 160.97, 94, -581, 16704
26500, 1, 10, 59.9630740, 10.7358210, 0, 196.41, 186.23, 2.8, 160.97, 51, -571, 16430
26600, 1, 10, 59.9630740, 10.7358210, 0, 196.32, 186.23, 2.8, 160.97, 4, -523, 16259
26700, 1, 10, 59.9630660, 10.7358250, 0, 196.32, 186.26, 2.99, 159.82, -50, -481, 16194
26800, 1, 10, 59.9630660, 10.7358250, 0, 196.32, 186.26, 2.99, 159.82, -51, -480, 16021
26900, 1, 10, 59.9630580, 10.7358300, 0, 196.15, 186.07, 2.71, 158.45, -89, -402, 15687
27000, 1, 10, 59.9630580, 10.7358300, 0, 196.23, 186.07, 2.71, 158.45, -134, -333, 15255
27100, 1, 10, 59.9630580, 10.7358300, 0, 196.23, 186.07, 2.71, 158.45, -135, -327, 14796
27200, 1, 10, 59.9630550, 10.7358330, 0, 196.23, 185.98, 2.55, 157.08, -113, -286, 14512
27300, 1, 10, 59.9630550, 10.7358330, 0, 196.15, 185.98, 2.55, 157.08, -81, -258, 14298
27400, 1, 10, 59.9630550, 10.7358400, 0, 196.06, 185.99, 2.38, 155.82, -1, -196, 14036
27500, 1, 10, 59.9630550, 10.7358400, 0, 196.06, 185.99, 2.38, 155.82, 57, -135, 14019
27600, 1, 10, 59.9630550, 10.7358400, 0, 196.06, 185.99, 2.38, 155.82, 96, -174, 14172
27700, 1, 10, 59.9630470, 10.7358450, 0, 195.97, 185.99, 2.13, 154.73, 190, -186, 14414
27800, 1, 10, 59.9630470, 10.7358450, 0, 195.97, 185.99, 2.13, 154.73, 235, -248, 14751
27900, 1, 10, 59.9630390, 10.7358490, 0, 195.97, 186, 1.83, 153.59, 252, -349, 14770
28000, 1, 10, 59.9630390, 10.7358490, 0, 195.97, 186, 1.83, 153.59, 231, -370, 14473
28100, 1, 10, 59.9630390, 10.7358490, 0, 195.89, 186, 1.83, 153.59, 128, -429, 14191
28200, 1, 10, 59.9630390, 10.7358550, 0, 195.89, 186, 1.71, 152.39, 12, -470, 14112
28300, 1, 10, 59.9630390, 10.7358550, 0, 195.89, 186, 1.71, 152.39, -43, -561, 14305
28400, 1, 10, 59.9630320, 10.7358600, 0, 195.89, 186, 1.52, 134.67, -60, -619, 14678
28500, 1, 10, 59.9630320, 10.7358600, 0, 195.89, 186, 1.52, 134.67, -156, -695, 15062
28600, 1, 10, 59.9630320, 10.7358600, 0, 195.89, 186, 1.52, 134.67, -179, -707, 15474
28700, 1, 10, 59.9630320, 10.7358650, 0, 195.89, 186.01, 1.25, 131.52, -231, -644, 15736
28800, 1, 10, 59.9630320, 10.7358650, 0, 195.89, 186.01, 1.25, 131.52, -433, -484, 16120
28900, 1, 10, 59.9630320, 10.7358700, 0, 195.89, 186.01, 1.07, 129.9, -482, -297, 16924
29000, 1, 10, 59.9630320, 10.7358700, 0, 195.89, 186.01, 1.07, 129.9, -528, -82, 17644
29100, 1, 10, 59.9630320, 10.7358700, 0, 195.89, 186.01, 1.07, 129.9, -536, 53, 17568
29200, 1, 10, 59.9630280, 10.7358730, 0, 195.89, 186.02, 0.9, 127.5, -569, 106, 17254
29300, 1, 10, 59.9630280, 10.7358730, 0, 195.89, 186.02, 0.9, 127.5, -536, 140, 16986
29400, 1, 10, 59.9630280, 10.7358760, 0, 195.97, 186.02, 0.68, 125.09, -419, 111, 16889
29500, 1, 10, 59.9630280, 10.7358760, 0, 195.97, 186.02, 0.68, 125.09, -139, 106, 16909
29600, 1, 10, 59.9630280, 10.7358760, 0, 195.89, 186.02, 0.68, 125.09, 33, 118, 17075
29700, 1, 10, 59.9630280, 10.7358780, 0, 195.97, 186.02, 0.51, 107.75, 77, 200, 16985
29800, 1, 10, 59.9630280, 10.7358780, 0, 195.97, 186.02, 0.51, 107.75, 37, 272, 16573
29900, 1, 10, 59.9630280, 10.7358810, 0, 195.97, 186.03, 0.2, 123.7, 73, 320, 16248
30000, 1, 10, 59.9630280, 10.7358810, 0, 196.06, 186.03, 0.2, 123.7, 157, 321, 16067
30100, 1, 10, 59.9630280, 10.7358810, 0, 196.06, 186.03, 0.2, 123.7, 243, 298, 16194
30200, 1, 10, 59.9630280, 10.7358830, 0, 196.06, 186.03, 0.07, 122.35, 245, 298, 16403
30300, 1, 10, 59.9630280, 10.7358830, 0, 196.06, 186.03, 0.07, 122.35, 214, 333, 16497
30400, 1, 10, 59.9630280, 10.7358850, 0, 196.06, 186.04, 0.05, 113.69, 239, 352, 16402
30500, 1, 10, 59.9630280, 10.7358850, 0, 196.06, 186.04, 0.05, 113.69, 269, 340, 16401
30600, 1, 10, 59.9630280, 10.7358850, 0, 196.06, 186.04, 0.05, 113.69, 238, 330, 16551
30700, 1, 10, 59.9630280, 10.7358850, 0, 196.06, 186.05, 0.06, 333.7, 227, 318, 16594
30800, 1, 10, 59.9630280, 10.7358850, 0, 196.06, 186.05, 0.06, 333.7, 253, 297, 16551
30900, 1, 10, 59.9630280, 10.7358870, 0, 196.06, 186.06, 0.1, 332.65, 285, 268, 16500
31000, 1, 10, 59.9630280, 10.7358870, 0, 196.15, 186.06, 0.1, 332.65, 307, 235, 16533
31100, 1, 10, 59.9630280, 10.7358870, 0, 196.23, 186.06, 0.1, 332.65, 402, 180, 16631
31200, 1, 10, 59.9630280, 10.7358870, 0, 196.23, 186.07, 0.57, 326.32, 478, 84, 16906
31300, 1, 10, 59.9630280, 10.7358870, 0, 196.15, 186.07, 0.57, 326.32, 475, 28, 17143
31400, 1, 10, 59.9630280, 10.7358830, 0, 196.15, 186.1, 0.54, 147.7, 472, 0, 17186
31500, 1, 10, 59.9630280, 10.7358830, 0, 196.15, 186.1, 0.54, 147.7, 515, -37, 17150
31600, 1, 10, 59.9630280, 10.7358830, 0, 196.15, 186.1, 0.54, 147.7, 546, -52, 17125
31700, 1, 10, 59.9630280, 10.7358810, 0, 196.15, 186.12, 0.53, 148.37, 586, -72, 17123
31800, 1, 10, 59.9630280, 10.7358810, 0, 196.15, 186.12, 0.53, 148.37, 605, -97, 17215
31900, 1, 10, 59.9630280, 10.7358800, 0, 196.15, 186.14, 0.51, 149.31, 625, -118, 17336
32000, 1, 10, 59.9630280, 10.7358800, 0, 196.15, 186.14, 0.51, 149.31, 633, -148, 17472
32100, 1, 10, 59.9630280, 10.7358800, 0, 196.23, 186.14, 0.51, 149.31, 613, -128, 17539
32200, 1, 10, 59.9630320, 10.7358760, 0, 196.23, 186.16, 0.51, 150.72, 694, -149, 17540
32300, 1, 10, 59.9630320, 10.7358760, 0, 196.23, 186.16, 0.51, 150.72, 706, -183, 17722
32400, 1, 10, 59.9630320, 10.7358750, 0, 196.23, 186.19, 0.49, 151.83, 704, -174, 17795
32500, 1, 10, 59.9630320, 10.7358750, 0, 196.23, 186.19, 0.49, 151.83, 730, -169, 17723
32600, 1, 10, 59.9630320, 10.7358750, 0, 196.15, 186.19, 0.49, 151.83, 819, -194, 17706
32700, 1, 10, 59.9630320, 10.7358730, 0, 196.15, 186.21, 0.47, 153, 895, -257, 17895
32800, 1, 10, 59.9630320, 10.7358730, 0, 196.15, 186.21, 0.47, 153, 894, -296, 18178
32900, 1, 10, 59.9630320, 10.7358710, 0, 196.15, 186.24, 0.45, 154.37, 854, -293, 18374
33000, 1, 10, 59.9630320, 10.7358710, 0, 196.15, 186.24, 0.45, 154.37, 814, -278, 18506
33100, 1, 10, 59.9630320, 10.7358710, 0, 196.15, 186.24, 0.45, 154.37, 753, -211, 18496
33200, 1, 10, 59.9630320, 10.7358700, 0, 196.15, 186.26, 0.42, 155.78, 708, -137, 18291
33300, 1, 10, 59.9630320, 10.7358700, 0, 195.97, 186.26, 0.42, 155.78, 715, -107, 18100
33400, 1, 10, 59.9630320, 10.7358700, 0, 196.15, 186.29, 0.39, 157.36, 735, -125, 18106
33500, 1, 10, 59.9630320, 10.7358700, 0, 196.06, 186.29, 0.39, 157.36, 739, -146, 18246
33600, 1, 10, 59.9630320, 10.7358700, 0, 195.97, 186.29, 0.39, 157.36, 719, -156, 18421
33700, 1, 10, 59.9630320, 10.7358680, 0, 195.89, 186.32, 0.37, 159.18, 722, -160, 18556
33800, 1, 10, 59.9630320, 10.7358680, 0, 195.8, 186.32, 0.37, 159.18, 735, -177, 18668
33900, 1, 10, 59.9630280, 10.7358600, 0, 195.89, 186.38, 0.45, 163.45, 748, -191, 18744
34000, 1, 10, 59.9630280, 10.7358600, 0, 195.8, 186.38, 0.45, 163.45, 788, -219, 18797
34100, 1, 10, 59.9630280, 10.7358600, 0, 195.8, 186.38, 0.45, 163.45, 882, -301, 18938
34200, 1, 10, 59.9630280, 10.7358580, 0, 195.8, 186.39, 0.47, 168.92, 949, -402, 19245
34300, 1, 10, 59.9630280, 10.7358580, 0, 195.8, 186.39, 0.47, 168.92, 982, -476, 19602
34400, 1, 10, 59.9630280, 10.7358560, 0, 195.8, 186.43, 0.47, 175.18, 1029, -529, 19826
34500, 1, 10, 59.9630280, 10.7358560, 0, 195.89, 186.43, 0.47, 175.18, 1121, -599, 19931
34600, 1, 10, 59.9630280, 10.7358560, 0, 195.89, 186.43, 0.47, 175.18, 1187, -645, 19998
34700, 1, 10, 59.9630280, 10.7358560, 0, 195.97, 186.42, 0.47, 182.01, 1201, -617, 19990
34800, 1, 10, 59.9630280, 10.7358560, 0, 195.97, 186.42, 0.47, 182.01, 1161, -511, 19860
34900, 1, 10, 59.9630280, 10.7358560, 0, 195.97, 186.48, 0.46, 189.07, 1113, -409, 19689
35000, 1, 10, 59.9630280, 10.7358560, 0, 195.97, 186.48, 0.46, 189.07, 1094, -367, 19640
35100, 1, 10, 59.9630280, 10.7358560, 0, 195.97, 186.48, 0.46, 189.07, 1101, -388, 19686
35200, 1, 10, 59.9630280, 10.7358580, 0, 195.97, 186.59, 0.44, 195.95, 1176, -470, 19787
35300, 1, 10, 59.9630280, 10.7358580, 0, 195.97, 186.59, 0.44, 195.95, 1184, -567, 19965
35400, 1, 10, 59.9630280, 10.7358600, 0, 195.97, 186.68, 0.43, 202.3, 1218, -575, 20063
35500, 1, 10, 59.9630280, 10.7358600, 0, 195.97, 186.68, 0.43, 202.3, 1206, -513, 20038
35600, 1, 10, 59.9630280, 10.7358600, 0, 195.97, 186.68, 0.43, 202.3, 1234, -459, 19878
35700, 1, 10, 59.9630280, 10.7358630, 0, 196.06, 186.71, 0.34, 208.08, 1278, -508, 19921
35800, 1, 10, 59.9630280, 10.7358630, 0, 196.06, 186.71, 0.34, 208.08, 1286, -531, 20053
35900, 1, 10, 59.9630280, 10.7358660, 0, 196.06, 186.75, 0.32, 213.37, 1305, -497, 20040
36000, 1, 10, 59.9630280, 10.7358660, 0, 196.06, 186.75, 0.32, 213.37, 1337, -487, 19939
36100, 1, 10, 59.9630280, 10.7358660, 0, 196.06, 186.75, 0.32, 213.37, 1376, -528, 19939
36200, 1, 10, 59.9630280, 10.7358700, 0, 196.06, 186.83, 0.29, 218.38, 1371, -590, 20112
36300, 1, 10, 59.9630280, 10.7358700, 0, 196.15, 186.83, 0.29, 218.38, 1370, -646, 20339
36400, 1, 10, 59.9630280, 10.7358710, 0, 196.06, 186.9, 0.27, 223.28, 1379, -678, 20468
36500, 1, 10, 59.9630280, 10.7358710, 0, 196.06, 186.9, 0.27, 223.28, 1391, -704, 20534
36600, 1, 10, 59.9630280, 10.7358710, 0, 196.06, 186.9, 0.27, 223.28, 1449, -755, 20531
36700, 1, 10, 59.9630320, 10.7358700, 0, 196.06, 187.03, 0.25, 228.01, 1490, -822, 20567
36800, 1, 10, 59.9630320, 10.7358700, 0, 196.06, 187.03, 0.25, 228.01, 1520, -866, 20603
36900, 1, 10, 59.9630390, 10.7358730, 0, 196.06, 187.14, 0.29, 235.11, 1549, -863, 20548
37000, 1, 10, 59.9630390, 10.7358730, 0, 196.06, 187.14, 0.29, 235.11, 1600, -866, 20409
37100, 1, 10, 59.9630390, 10.7358730, 0, 196.15, 187.14, 0.29, 235.11, 1631, -909, 20365
37200, 1, 10, 59.9630390, 10.7358760, 0, 196.06, 187.21, 0.27, 241.91, 1645, -909, 20337
37300, 1, 10, 59.9630390, 10.7358760, 0, 196.06, 187.21, 0.27, 241.91, 1655, -901, 20297
37400, 1, 10, 59.9630390, 10.7358780, 0, 196.15, 187.29, 0.27, 248.52, 1672, -922, 20284
37500, 1, 10, 59.9630390, 10.7358780, 0, 196.15, 187.29, 0.27, 248.52, 1671, -909, 20288
37600, 1, 10, 59.9630390, 10.7358780, 0, 196.15, 187.29, 0.27, 248.52, 1655, -867, 20278
37700, 1, 10, 59.9630470, 10.7358800, 0, 196.15, 187.38, 0.27, 254.96, 1616, -794, 20274
37800, 1, 10, 59.9630470, 10.7358800, 0, 196.15, 187.38, 0.27, 254.96, 1579, -735, 20259
37900, 1, 10, 59.9630470, 10.7358810, 0, 196.15, 187.5, 0.26, 261.14, 1587, -753, 20314
38000, 1, 10, 59.9630470, 10.7358810, 0, 196.15, 187.5, 0.26, 261.14, 1565, -759, 20424
38100, 1, 10, 59.9630470, 10.7358810, 0, 196.15, 187.5, 0.26, 261.14, 1579, -769, 20431
38200, 1, 10, 59.9630470, 10.7358800, 0, 196.15, 187.62, 0.24, 267.21, 1626, -785, 20350
38300, 1, 10, 59.9630470, 10.7358800, 0, 196.23, 187.62, 0.24, 267.21, 1667, -807, 20246
38400, 1, 10, 59.9630470, 10.7358780, 0, 196.23, 187.74, 0.23, 272.19, 1711, -863, 20176
38500, 1, 10, 59.9630470, 10.7358780, 0, 196.15, 187.74, 0.23, 272.19, 1778, -979, 20163
38600, 1, 10, 59.9630470, 10.7358780, 0, 196.15, 187.74, 0.23, 272.19, 1820, -1064, 20162
38700, 1, 10, 59.9630550, 10.7358750, 0, 196.15, 187.89, 0.21, 276.58, 1841, -1076, 20135
38800, 1, 10, 59.9630550, 10.7358750, 0, 196.15, 187.89, 0.21, 276.58, 1837, -1046, 20093
38900, 1, 10, 59.9630550, 10.7358680, 0, 196.23, 188.08, 0.21, 280.28, 1812, -1030, 20112
39000, 1, 10, 59.9630550, 10.7358680, 0, 196.23, 188.08, 0.21, 280.28, 1782, -988, 20133
39100, 1, 10, 59.9630550, 10.7358680, 0, 196.23, 188.08, 0.21, 280.28, 1758, -980, 20169
39200, 1, 10, 59.9630550, 10.7358650, 0, 196.23, 188.22, 0.2, 283.47, 1748, -998, 20207
39300, 1, 10, 59.9630550, 10.7358650, 0, 196.23, 188.22, 0.2, 283.47, 1758, -1006, 20191
39400, 1, 10, 59.9630580, 10.7358630, 0, 196.23, 188.35, 0.19, 285.96, 1770, -1011, 20139
39500, 1, 10, 59.9630580, 10.7358630, 0, 196.23, 188.35, 0.19, 285.96, 1779, -1012, 20092
39600, 1, 10, 59.9630580, 10.7358630, 0, 196.23, 188.35, 0.19, 285.96, 1784, -1015, 20068
39700, 1, 10, 59.9630580, 10.7358580, 0, 196.15, 188.54, 0.2, 288.27, 1781, -994, 20037
39800, 1, 10, 59.9630580, 10.7358580, 0, 196.06, 188.54, 0.2, 288.27, 1777, -949, 19977
39900, 1, 10, 59.9630660, 10.7358530, 0, 195.97, 188.76, 0.21, 290.61, 1771, -924, 19950
40000, 1, 10, 59.9630660, 10.7358530, 0, 195.97, 188.76, 0.21, 290.61, 1764, -889, 19909
40100, 1, 10, 59.9630660, 10.7358530, 0, 195.89, 188.76, 0.21, 290.61, 1765, -861, 19850
40200, 1, 10, 59.9630660, 10.7358510, 0, 195.8, 188.87, 0.21, 292.44, 1785, -890, 19802
40300, 1, 10, 59.9630660, 10.7358510, 0, 195.8, 188.87, 0.21, 292.44, 1813, -961, 19798
40400, 1, 10, 59.9630660, 10.7358490, 0, 195.8, 189.02, 0.22, 294.12, 1826, -1024, 19834
40500, 1, 10, 59.9630660, 10.7358490, 0, 195.8, 189.02, 0.22, 294.12, 1830, -1027, 19844
40600, 1, 10, 59.9630660, 10.7358490, 0, 195.8, 189.02, 0.22, 294.12, 1934, -824, 19340
40700, 1, 10, 59.9630660, 10.7358480, 0, 195.72, 189.06, 0.22, 295.37, 2008, -405, 18213
40800, 1, 10, 59.9630660, 10.7358480, 0, 195.72, 189.06, 0.22, 295.37, 1990, 55, 16847
40900, 1, 10, 59.9630660, 10.7358480, 0, 195.8, 189.1, 0.21, 296.22, 1863, 396, 15664
41000, 1, 10, 59.9630660, 10.7358480, 0, 195.8, 189.1, 0.21, 296.22, 1646, 579, 14911
41100, 1, 10, 59.9630660, 10.7358480, 0, 195.89, 189.1, 0.21, 296.22, 1405, 662, 14499
41200, 1, 10, 59.9630660, 10.7358470, 0, 195.97, 189.14, 0.2, 297.04, 1212, 706, 14146
41300, 1, 10, 59.9630660, 10.7358470, 0, 195.97, 189.14, 0.2, 297.04, 1071, 691, 13870
41400, 1, 10, 59.9630660, 10.7358470, 0, 195.97, 189.18, 0.18, 297.44, 957, 630, 13754
41500, 1, 10, 59.9630660, 10.7358470, 0, 195.89, 189.18, 0.18, 297.44, 805, 559, 13733
41600, 1, 10, 59.9630660, 10.7358470, 0, 195.89, 189.18, 0.18, 297.44, 650, 503, 13679
41700, 1, 9, 59.9630660, 10.7358470, 0, 195.97, 189.22, 0.15, 297.26, 510, 467, 13547
41800, 1, 9, 59.9630660, 10.7358470, 0, 195.97, 189.22, 0.15, 297.26, 454, 442, 13266
41900, 1, 9, 59.9630660, 10.7358450, 0, 195.97, 189.26, 0.14, 296.76, 492, 410, 13061
42000, 1, 9, 59.9630660, 10.7358450, 0, 195.97, 189.26, 0.14, 296.76, 534, 357, 13108
42100, 1, 9, 59.9630660, 10.7358450, 0, 195.97, 189.26, 0.14, 296.76, 488, 273, 13231
42200, 1, 9, 59.9630660, 10.7358450, 0, 196.06, 189.29, 0.14, 296.05, 356, 239, 13280
42300, 1, 9, 59.9630660, 10.7358450, 0, 196.06, 189.29, 0.14, 296.05, 296, 215, 13109
42400, 1, 9, 59.9630660, 10.7358440, 0, 196.06, 189.33, 0.15, 295.58, 338, 189, 13116
42500, 1, 9, 59.9630660, 10.7358440, 0, 196.06, 189.33, 0.15, 295.58, 265, 144, 13419
42600, 1, 9, 59.9630660, 10.7358440, 0, 196.06, 189.33, 0.15, 295.58, 44, 104, 13632
42700, 1, 9, 59.9630660, 10.7358440, 0, 196.06, 189.37, 0.17, 295.25, -196, 73, 13280
42800, 1, 9, 59.9630660, 10.7358440, 0, 196.06, 189.37, 0.17, 295.25, -338, 25, 12642
42900, 1, 9, 59.9630660, 10.7358440, 0, 196.15, 189.41, 0.17, 295.2, -405, -64, 11960
43000, 1, 9, 59.9630660, 10.7358440, 0, 196.15, 189.41, 0.17, 295.2, -515, -167, 11261
43100, 1, 9, 59.9630660, 10.7358440, 0, 196.15, 189.41, 0.17, 295.2, -580, -295, 10492
43200, 1, 9, 59.9630660, 10.7358410, 0, 196.15, 189.45, 0.16, 295.63, -605, -399, 9777
43300, 1, 9, 59.9630660, 10.7358410, 0, 196.15, 189.45, 0.16, 295.63, -625, -486, 9251
43400, 1, 9, 59.9630660, 10.7358410, 0, 196.23, 189.48, 0.16, 296.45, -685, -559, 9021
43500, 1, 9, 59.9630660, 10.7358410, 0, 196.23, 189.48, 0.16, 296.45, -781, -617, 9133
43600, 1, 9, 59.9630660, 10.7358410, 0, 196.23, 189.48, 0.16, 296.45, -905, -689, 9405
43700, 1, 8, 59.9630660, 10.7358400, 0, 196.23, 189.52, 0.16, 296.77, -1046, -794, 9608
43800, 1, 8, 59.9630660, 10.7358400, 0, 196.23, 189.52, 0.16, 296.77, -1190, -935, 9685
43900, 1, 8, 59.9630660, 10.7358400, 0, 196.23, 189.55, 0.15, 297.43, -1335, -1101, 9692
44000, 1, 8, 59.9630660, 10.7358400, 0, 196.15, 189.55, 0.15, 297.43, -1443, -1196, 9771
44100, 1, 8, 59.9630660, 10.7358400, 0, 196.15, 189.55, 0.15, 297.43, -1516, -1189, 10001
44200, 1, 8, 59.9630660, 10.7358400, 0, 196.23, 189.59, 0.15, 298.07, -1589, -1203, 10189
44300, 1, 8, 59.9630660, 10.7358400, 0, 196.23, 189.59, 0.15, 298.07, -1634, -1199, 10341
44400, 1, 9, 59.9630660, 10.7358380, 0, 196.15, 189.62, 0.17, 298.24, -1717, -1011, 10934
44500, 1, 9, 59.9630660, 10.7358380, 0, 196.15, 189.62, 0.17, 298.24, -1843, -632, 12283
44600, 1, 9, 59.9630660, 10.7358380, 0, 196.15, 189.62, 0.17, 298.24, -1870, -233, 13758
44700, 1, 9, 59.9630660, 10.7358380, 0, 196.15, 189.66, 0.2, 298.14, -1752, 124, 15062
44800, 1, 9, 59.9630660, 10.7358380, 0, 196.15, 189.66, 0.2, 298.14, -1542, 314, 15963
44900, 1, 9, 59.9630660, 10.7358380, 0, 196.15, 189.66, 0.2, 298.14, -1332, 435, 16647
45000, 1, 10, 59.9630660, 10.7358360, 0, 196.15, 189.69, 0.17, 298.12, -1176, 516, 17286
45100, 1, 10, 59.9630660, 10.7358360, 0, 196.15, 189.69, 0.17, 298.12, -1043, 621, 18062
45200, 1, 10, 59.9630660, 10.7358360, 0, 196.15, 189.73, 0.15, 297.94, -938, 701, 18617
45300, 1, 10, 59.9630660, 10.7358360, 0, 196.15, 189.73, 0.15, 297.94, -869, 763, 19088
45400, 1, 9, 59.9630660, 10.7358350, 0, 196.15, 189.76, 0.15, 297.62, -818, 797, 19216
45500, 1, 9, 59.9630660, 10.7358350, 0, 196.15, 189.76, 0.15, 297.62, -759, 773, 19327
45600, 1, 9, 59.9630660, 10.7358350, 0, 196.06, 189.76, 0.15, 297.62, -695, 751, 19454
45700, 1, 9, 59.9630660, 10.7358350, 0, 196.06, 189.8, 0.15, 297.28, -634, 719, 19456
45800, 1, 9, 59.9630660, 10.7358350, 0, 196.06, 189.8, 0.15, 297.28, -587, 711, 19384
45900, 1, 9, 59.9630660, 10.7358350, 0, 195.97, 189.84, 0.15, 297.02, -568, 702, 19274
46000, 1, 9, 59.9630660, 10.7358350, 0, 195.97, 189.84, 0.15, 297.02, -477, 639, 19232
46100, 1, 9, 59.9630660, 10.7358350, 0, 195.89, 189.84, 0.15, 297.02, -432, 609, 19274
46200, 1, 9, 59.9630660, 10.7358330, 0, 195.89, 189.87, 0.15, 296.66, -384, 641, 19209
46300, 1, 9, 59.9630660, 10.7358330, 0, 195.89, 189.87, 0.15, 296.66, -359, 710, 18928
46400, 1, 9, 59.9630660, 10.7358330, 0, 195.89, 189.91, 0.14, 295.42, -409, 750, 18772
46500, 1, 9, 59.9630660, 10.7358330, 0, 195.8, 189.91, 0.14, 295.42, -402, 765, 18714
46600, 1, 9, 59.9630660, 10.7358330, 0, 195.8, 189.91, 0.14, 295.42, -349, 787, 18762
46700, 1, 10, 59.9630660, 10.7358310, 0, 195.8, 189.95, 0.13, 294.33, -304, 822, 18945
46800, 1, 10, 59.9630660, 10.7358310, 0, 195.8, 189.95, 0.13, 294.33, -194, 805, 19203
46900, 1, 10, 59.9630660, 10.7358310, 0, 195.8, 189.98, 0.12, 293.26, -307, 784, 19213
47000, 1, 10, 59.9630660, 10.7358310, 0, 195.8, 189.98, 0.12, 293.26, -433, 662, 18531
47100, 1, 10, 59.9630660, 10.7358310, 0, 195.8, 189.98, 0.12, 293.26, -344, 596, 17945
47200, 1, 10, 59.9630660, 10.7358310, 0, 195.8, 190.02, 0.11, 292.29, -281, 506, 17473
47300, 1, 10, 59.9630660, 10.7358310, 0, 195.89, 190.02, 0.11, 292.29, -121, 417, 16756
47400, 1, 10, 59.9630660, 10.7358310, 0, 195.89, 190.02, 0.11, 292.29, -58, 402, 16041
47500, 1, 9, 59.9630660, 10.7358300, 0, 195.89, 190.05, 0.11, 291.36, -21, 414, 15782
47600, 1, 9, 59.9630660, 10.7358300, 0, 195.89, 190.05, 0.11, 291.36, 147, 398, 16042
47700, 1, 9, 59.9630660, 10.7358300, 0, 195.97, 190.09, 0.11, 290.47, 179, 290, 16536
47800, 1, 9, 59.9630660, 10.7358300, 0, 196.06, 190.09, 0.11, 290.47, 157, 172, 16946
47900, 1, 9, 59.9630660, 10.7358300, 0, 195.97, 190.09, 0.11, 290.47, 250, 113, 17322
48000, 1, 9, 59.9630660, 10.7358300, 0, 195.97, 190.12, 0.11, 289.5, 257, 100, 17432
48100, 1, 9, 59.9630660, 10.7358300, 0, 195.97, 190.12, 0.11, 289.5, 303, 209, 17250
48200, 1, 9, 59.9630660, 10.7358280, 0, 195.97, 190.16, 0.11, 288.48, 280, 309, 16858
48300, 1, 9, 59.9630660, 10.7358280, 0, 195.97, 190.16, 0.11, 288.48, 315, 501, 16037
48400, 1, 9, 59.9630660, 10.7358280, 0, 195.97, 190.16, 0.11, 288.48, 229, 606, 15506
48500, 1, 9, 59.9630660, 10.7358280, 0, 195.97, 190.2, 0.1, 287.57, 211, 642, 15702
48600, 1, 9, 59.9630660, 10.7358280, 0, 195.97, 190.2, 0.1, 287.57, 268, 641, 16027
48700, 1, 9, 59.9630660, 10.7358280, 0, 195.97, 190.23, 0.1, 286.44, 359, 650, 16025
48800, 1, 9, 59.9630660, 10.7358280, 0, 195.97, 190.23, 0.1, 286.44, 313, 560, 15729
48900, 1, 9, 59.9630660, 10.7358280, 0, 195.97, 190.23, 0.1, 286.44, 302, 517, 15270
49000, 1, 9, 59.9630660, 10.7358280, 0, 196.06, 190.27, 0.1, 284.92, 262, 537, 15050
49100, 1, 9, 59.9630660, 10.7358280, 0, 196.06, 190.27, 0.1, 284.92, 166, 522, 14734
49200, 1, 10, 59.9630660, 10.7358260, 0, 196.06, 190.31, 0.1, 283.15, 143, 679, 14364
49300, 1, 10, 59.9630660, 10.7358260, 0, 196.06, 190.31, 0.1, 283.15, 118, 686, 14437
49400, 1, 10, 59.9630660, 10.7358260, 0, 196.06, 190.31, 0.1, 283.15, 101, 644, 14558
49500, 1, 10, 59.9630660, 10.7358260, 0, 196.06, 190.34, 0.07, 281.51, 139, 657, 14761
49600, 1, 10, 59.9630660, 10.7358260, 0, 196.15, 190.34, 0.07, 281.51, 133, 535, 15241
49700, 1, 10, 59.9630660, 10.7358260, 0, 196.23, 190.38, 0.06, 279.46, 130, 470, 15750
49800, 1, 10, 59.9630660, 10.7358260, 0, 196.23, 190.38, 0.06, 279.46, 197, 500, 15717
49900, 1, 10, 59.9630660, 10.7358260, 0, 196.23, 190.38, 0.06, 279.46, 206, 546, 15480
50000, 1, 10, 59.9630660, 10.7358260, 0, 196.23, 190.41, 0.11, 276.12, 180, 592, 15407
50100, 1, 10, 59.9630660, 10.7358260, 0, 196.23, 190.41, 0.11, 276.12, 243, 631, 15255
50200, 1, 9, 59.9630660, 10.7358260, 0, 196.23, 190.44, 0.17, 270.8, 312, 549, 14980
50300, 1, 9, 59.9630660, 10.7358260, 0, 196.32, 190.44, 0.17, 270.8, 273, 488, 14820
50400, 1, 9, 59.9630660, 10.7358260, 0, 196.32, 190.44, 0.17, 270.8, 201, 502, 15031
50500, 1, 9, 59.9630660, 10.7358260, 0, 196.41, 190.48, 0.24, 270.8, 130, 462, 15260
50600, 1, 9, 59.9630660, 10.7358260, 0, 196.41, 190.48, 0.24, 270.8, 33, 428, 15237
50700, 1, 10, 59.9630660, 10.7358280, 0, 196.49, 190.51, 0.32, 270.8, -108, 467, 14998
50800, 1, 10, 59.9630660, 10.7358280, 0, 196.49, 190.51, 0.32, 270.8, -156, 297, 14573
50900, 1, 10, 59.9630660, 10.7358280, 0, 196.49, 190.51, 0.32, 270.8, -38, 239, 14071
51000, 1, 10, 59.9630580, 10.7358280, 0, 196.49, 190.71, 0.43, 270.8, -19, 263, 13826
51100, 1, 10, 59.9630580, 10.7358280, 0, 196.41, 190.71, 0.43, 270.8, 40, 261, 13841
51200, 1, 10, 59.9630550, 10.7358310, 0, 196.41, 190.91, 0.95, 197.39, 157, 168, 13710
51300, 1, 10, 59.9630550, 10.7358310, 0, 196.41, 190.91, 0.95, 197.39, 328, 153, 13532
51400, 1, 10, 59.9630550, 10.7358310, 0, 196.41, 190.91, 0.95, 197.39, 367, 57, 13497
51500, 1, 10, 59.9630470, 10.7358330, 0, 196.41, 191.07, 1.37, 179.07, 411, -60, 13700
51600, 1, 10, 59.9630470, 10.7358330, 0, 196.41, 191.07, 1.37, 179.07, 338, -112, 13800
51700, 1, 10, 59.9630390, 10.7358380, 0, 196.41, 191.25, 2.1, 167.18, 289, -111, 13773
51800, 1, 10, 59.9630390, 10.7358380, 0, 196.41, 191.25, 2.1, 167.18, 283, -67, 13751
51900, 1, 10, 59.9630390, 10.7358380, 0, 196.32, 191.25, 2.1, 167.18, 316, -44, 13708
52000, 1, 10, 59.9630390, 10.7358450, 0, 196.32, 191.33, 2.47, 159.32, 365, -8, 13760
52100, 1, 10, 59.9630390, 10.7358450, 0, 196.32, 191.33, 2.47, 159.32, 437, 15, 13918
52200, 1, 10, 59.9630320, 10.7358530, 0, 196.32, 191.48, 3.32, 154.32, 492, -76, 13911
52300, 1, 10, 59.9630320, 10.7358530, 0, 196.32, 191.48, 3.32, 154.32, 528, -160, 14009
52400, 1, 10, 59.9630320, 10.7358530, 0, 196.32, 191.48, 3.32, 154.32, 526, -246, 14251
52500, 1, 10, 59.9630280, 10.7358610, 0, 196.23, 191.61, 3.43, 151.31, 480, -289, 14181
52600, 1, 10, 59.9630280, 10.7358610, 0, 196.23, 191.61, 3.43, 151.31, 374, -232, 14027
52700, 1, 10, 59.9630200, 10.7358730, 0, 196.15, 191.7, 3.29, 148.32, 315, -237, 13986
52800, 1, 10, 59.9630200, 10.7358730, 0, 196.15, 191.7, 3.29, 148.32, 386, -250, 13980
52900, 1, 10, 59.9630200, 10.7358730, 0, 196.15, 191.7, 3.29, 148.32, 482, -236, 14153
53000, 1, 10, 59.9630200, 10.7358870, 0, 196.15, 191.76, 3.29, 131.68, 639, -312, 14522
53100, 1, 10, 59.9630200, 10.7358870, 0, 196.23, 191.76, 3.29, 131.68, 764, -380, 14923
53200, 1, 10, 59.9630130, 10.7359000, 0, 196.23, 191.84, 3.32, 127.62, 785, -427, 15337
53300, 1, 10, 59.9630130, 10.7359000, 0, 196.23, 191.84, 3.32, 127.62, 774, -449, 15708
53400, 1, 10, 59.9630130, 10.7359000, 0, 196.23, 191.84, 3.32, 127.62, 620, -484, 15881
53500, 1, 10, 59.9630090, 10.7359100, 0, 196.23, 191.9, 3.29, 127.26, 509, -425, 15954
53600, 1, 10, 59.9630090, 10.7359100, 0, 196.23, 191.9, 3.29, 127.26, 343, -589, 15814
53700, 1, 10, 59.9630010, 10.7359180, 0, 196.23, 191.99, 3.29, 129, 252, -564, 15623
53800, 1, 10, 59.9630010, 10.7359180, 0, 196.32, 191.99, 3.29, 129, 256, -441, 15601
53900, 1, 10, 59.9630010, 10.7359180, 0, 196.49, 191.99, 3.29, 129, 303, -319, 15795
54000, 1, 10, 59.9629940, 10.7359230, 0, 196.49, 192.06, 3.13, 132.32, 280, -489, 15997
54100, 1, 10, 59.9629940, 10.7359230, 0, 196.49, 192.06, 3.13, 132.32, 346, -530, 16299
54200, 1, 10, 59.9629940, 10.7359310, 0, 196.41, 192.12, 2.91, 127.49, 249, -388, 16451
54300, 1, 10, 59.9629940, 10.7359310, 0, 196.41, 192.12, 2.91, 127.49, 128, -237, 16416
54400, 1, 10, 59.9629940, 10.7359310, 0, 196.41, 192.12, 2.91, 127.49, 24, -145, 16227
54500, 1, 10, 59.9629900, 10.7359350, 0, 196.41, 192.14, 2.57, 128.54, 36, -113, 16143
54600, 1, 10, 59.9629900, 10.7359350, 0, 196.32, 192.14, 2.57, 128.54, 104, -28, 16336
54700, 1, 10, 59.9629900, 10.7359460, 0, 196.32, 192.32, 2.44, 126.34, 190, 74, 16609
54800, 1, 10, 59.9629900, 10.7359460, 0, 196.32, 192.32, 2.44, 126.34, 289, 35, 16745
54900, 1, 10, 59.9629900, 10.7359460, 0, 196.32, 192.32, 2.44, 126.34, 280, 0, 16898
55000, 1, 10, 59.9629820, 10.7359550, 0, 196.32, 192.47, 2.43, 125.1, 226, 10, 17013
55100, 1, 10, 59.9629820, 10.7359550, 0, 196.32, 192.47, 2.43, 125.1, 114, 121, 17028
55200, 1, 10, 59.9629750, 10.7359630, 0, 196.32, 192.58, 2.34, 124.36, 10, 86, 16955
55300, 1, 10, 59.9629750, 10.7359630, 0, 196.32, 192.58, 2.34, 124.36, -23, 41, 16816
55400, 1, 10, 59.9629750, 10.7359630, 0, 196.32, 192.58, 2.34, 124.36, -3, 75, 16739
55500, 1, 10, 59.9629750, 10.7359800, 0, 196.32, 192.51, 2.91, 113.62, 80, 83, 16803
55600, 1, 10, 59.9629750, 10.7359800, 0, 196.32, 192.51, 2.91, 113.62, 135, 70, 16933
55700, 1, 10, 59.9629750, 10.7359880, 0, 196.32, 192.54, 2.76, 114.39, 145, 48, 17188
55800, 1, 10, 59.9629750, 10.7359880, 0, 196.49, 192.54, 2.76, 114.39, 134, 164, 17355
55900, 1, 10, 59.9629750, 10.7359880, 0, 196.49, 192.54, 2.76, 114.39, 0, 287, 17266
56000, 1, 10, 59.9629710, 10.7360000, 0, 196.49, 192.58, 2.77, 115.56, -154, 261, 16985
56100, 1, 10, 59.9629710, 10.7360000, 0, 196.49, 192.58, 2.77, 115.56, -178, 285, 16788
56200, 1, 10, 59.9629630, 10.7360050, 0, 196.41, 192.53, 2.51, 117.24, -164, 393, 16847
56300, 1, 10, 59.9629630, 10.7360050, 0, 196.49, 192.53, 2.51, 117.24, -141, 430, 16842
56400, 1, 10, 59.9629630, 10.7360050, 0, 196.49, 192.53, 2.51, 117.24, -131, 520, 16832
56500, 1, 10, 59.9629550, 10.7360150, 0, 196.49, 192.54, 2.42, 119.38, -190, 637, 16805
56600, 1, 10, 59.9629550, 10.7360150, 0, 196.49, 192.54, 2.42, 119.38, -354, 782, 16427
56700, 1, 10, 59.9629520, 10.7360230, 0, 196.49, 192.52, 2.41, 122.14, -453, 785, 16185
56800, 1, 10, 59.9629520, 10.7360230, 0, 196.49, 192.52, 2.41, 122.14, -388, 858, 16129
56900, 1, 10, 59.9629520, 10.7360230, 0, 196.49, 192.52, 2.41, 122.14, -250, 1058, 16261
57000, 1, 10, 59.9629440, 10.7360360, 0, 196.49, 192.83, 2.71, 124.15, -152, 1058, 16277
57100, 1, 10, 59.9629440, 10.7360360, 0, 196.58, 192.83, 2.71, 124.15, -156, 965, 16261
57200, 1, 10, 59.9629330, 10.7360350, 0, 196.58, 192.45, 2.94, 126.61, -225, 948, 16214
57300, 1, 10, 59.9629330, 10.7360350, 0, 196.67, 192.45, 2.94, 126.61, -441, 994, 15950
57400, 1, 10, 59.9629330, 10.7360350, 0, 196.75, 192.45, 2.94, 126.61, -611, 834, 15571
57500, 1, 10, 59.9629170, 10.7360430, 0, 196.93, 192.19, 3.2, 128.86, -684, 724, 14980
57600, 1, 10, 59.9629170, 10.7360430, 0, 196.93, 192.19, 3.2, 128.86, -628, 721, 14684
57700, 1, 10, 59.9629060, 10.7360550, 0, 196.93, 191.82, 3.24, 130.66, -447, 684, 14679
57800, 1, 10, 59.9629060, 10.7360550, 0, 197.01, 191.82, 3.24, 130.66, -322, 544, 14678
57900, 1, 10, 59.9629060, 10.7360550, 0, 197.1, 191.82, 3.24, 130.66, -233, 663, 14679
58000, 1, 10, 59.9628940, 10.7360650, 0, 197.19, 191.47, 3.4, 132.03, -373, 736, 14362
58100, 1, 10, 59.9628940, 10.7360650, 0, 197.27, 191.47, 3.4, 132.03, -452, 489, 14024
58200, 1, 10, 59.9628870, 10.7360730, 0, 197.36, 191.41, 3.36, 133.06, -315, 275, 13785
58300, 1, 10, 59.9628870, 10.7360730, 0, 197.27, 191.41, 3.36, 133.06, -216, 397, 13805
58400, 1, 10, 59.9628870, 10.7360730, 0, 197.19, 191.41, 3.36, 133.06, -103, 557, 13748
58500, 1, 10, 59.9628790, 10.7360850, 0, 197.19, 191.37, 3.21, 133.91, -54, 581, 13620
58600, 1, 10, 59.9628790, 10.7360850, 0, 197.19, 191.37, 3.21, 133.91, 91, 435, 13522
58700, 1, 10, 59.9628750, 10.7361080, 0, 197.19, 191.08, 3.12, 133.18, 118, 489, 13416
58800, 1, 10, 59.9628750, 10.7361080, 0, 197.19, 191.08, 3.12, 133.18, 147, 738, 13213
58900, 1, 10, 59.9628750, 10.7361080, 0, 197.27, 191.08, 3.12, 133.18, 15, 876, 12960
59000, 1, 10, 59.9628680, 10.7361200, 0, 197.36, 191.04, 3.11, 132.91, -14, 825, 12934
59100, 1, 10, 59.9628680, 10.7361200, 0, 197.45, 191.04, 3.11, 132.91, 37, 681, 12908
59200, 1, 10, 59.9628560, 10.7361400, 0, 197.53, 190.69, 2.84, 132.43, 153, 672, 12858
59300, 1, 10, 59.9628560, 10.7361400, 0, 197.53, 190.69, 2.84, 132.43, 288, 843, 12899
59400, 1, 10, 59.9628560, 10.7361400, 0, 197.62, 190.69, 2.84, 132.43, 310, 915, 12761
59500, 1, 10, 59.9628490, 10.7361560, 0, 197.7, 190.69, 2.81, 119.44, 390, 961, 12548
59600, 1, 10, 59.9628490, 10.7361560, 0, 197.7, 190.69, 2.81, 119.44, 427, 975, 12521
59700, 1, 10, 59.9628490, 10.7361760, 0, 197.7, 190.72, 2.6, 109.49, 623, 916, 13056
59800, 1, 10, 59.9628490, 10.7361760, 0, 197.79, 190.72, 2.6, 109.49, 627, 968, 13295
59900, 1, 10, 59.9628490, 10.7361760, 0, 197.79, 190.72, 2.6, 109.49, 510, 990, 13341
60000, 1, 10, 59.9628490, 10.7361980, 0, 197.79, 190.83, 2.21, 93.74, 383, 1043, 13254
60100, 1, 10, 59.9628490, 10.7361980, 0, 197.79, 190.83, 2.21, 93.74, 288, 983, 12929
60200, 1, 10, 59.9628490, 10.7362250, 0, 197.88, 191, 2.18, 83.15, 212, 1040, 12569
60300, 1, 10, 59.9628490, 10.7362250, 0, 198.05, 191, 2.18, 83.15, 279, 1222, 12664
60400, 1, 10, 59.9628490, 10.7362250, 0, 198.05, 191, 2.18, 83.15, 338, 1240, 12692
60500, 1, 10, 59.9628560, 10.7362580, 0, 198.05, 191.1, 2.2, 64.36, 370, 1219, 12724
60600, 1, 10, 59.9628560, 10.7362580, 0, 198.14, 191.1, 2.2, 64.36, 365, 1090, 12604
60700, 1, 10, 59.9628600, 10.7362860, 0, 198.14, 191.23, 2.17, 56.3, 349, 1028, 12477
60800, 1, 10, 59.9628600, 10.7362860, 0, 198.22, 191.23, 2.17, 56.3, 322, 1093, 12487
60900, 1, 10, 59.9628600, 10.7362860, 0, 198.31, 191.23, 2.17, 56.3, 297, 1054, 12711
61000, 1, 10, 59.9628680, 10.7363150, 0, 198.31, 191.46, 2.27, 55.89, 243, 998, 12946
61100, 1, 10, 59.9628680, 10.7363150, 0, 198.4, 191.46, 2.27, 55.89, 178, 942, 12917
61200, 1, 10, 59.9628680, 10.7363250, 0, 198.4, 191.71, 1.75, 56.71, 129, 843, 12734
61300, 1, 10, 59.9628680, 10.7363250, 0, 198.4, 191.71, 1.75, 56.71, 94, 859, 12623
61400, 1, 10, 59.9628680, 10.7363250, 0, 198.57, 191.71, 1.75, 56.71, 192, 979, 12707
61500, 1, 10, 59.9628680, 10.7363380, 0, 198.66, 191.94, 1.76, 57.24, 241, 1020, 12880
61600, 1, 10, 59.9628680, 10.7363380, 0, 198.66, 191.94, 1.76, 57.24, 246, 1082, 12883
61700, 1, 10, 59.9628680, 10.7363480, 0, 198.74, 192, 1.72, 57.86, 184, 1085, 12671
61800, 1, 10, 59.9628680, 10.7363480, 0, 198.83, 192, 1.72, 57.86, 154, 972, 12347
61900, 1, 10, 59.9628680, 10.7363480, 0, 198.83, 192, 1.72, 57.86, 63, 890, 12098
62000, 1, 10, 59.9628680, 10.7363590, 0, 198.92, 192.06, 1.54, 55.68, 37, 947, 12175
62100, 1, 10, 59.9628680, 10.7363590, 0, 199, 192.06, 1.54, 55.68, -12, 992, 12207
62200, 1, 10, 59.9628750, 10.7363630, 0, 199, 192.12, 1.38, 57.16, -143, 999, 12239
62300, 1, 10, 59.9628750, 10.7363630, 0, 199.09, 192.12, 1.38, 57.16, -182, 1070, 12088
62400, 1, 10, 59.9628750, 10.7363630, 0, 199.17, 192.12, 1.38, 57.16, -286, 913, 11620
62500, 1, 10, 59.9628750, 10.7363680, 0, 199.17, 192.18, 1.36, 57.24, -281, 826, 11260
62600, 1, 10, 59.9628750, 10.7363680, 0, 199.17, 192.18, 1.36, 57.24, -198, 838, 11092
62700, 1, 10, 59.9628750, 10.7363750, 0, 199.17, 192.25, 1.35, 67.5, -15, 984, 11314
62800, 1, 10, 59.9628750, 10.7363750, 0, 199.26, 192.25, 1.35, 67.5, 106, 984, 11643
62900, 1, 10, 59.9628750, 10.7363750, 0, 199.35, 192.25, 1.35, 67.5, 217, 1053, 11920
63000, 1, 10, 59.9628750, 10.7363800, 0, 199.35, 192.33, 1.15, 67.18, 259, 1014, 11770
63100, 1, 10, 59.9628750, 10.7363800, 0, 199.35, 192.33, 1.15, 67.18, 237, 911, 11484
63200, 1, 10, 59.9628750, 10.7363840, 0, 199.35, 192.41, 1.26, 56.7, 237, 845, 11613
63300, 1, 10, 59.9628750, 10.7363840, 0, 199.35, 192.41, 1.26, 56.7, 196, 853, 12016
63400, 1, 10, 59.9628750, 10.7363840, 0, 199.35, 192.41, 1.26, 56.7, 192, 911, 12184
63500, 1, 10, 59.9628790, 10.7363900, 0, 199.43, 192.5, 1.34, 59.7, -48, 945, 11949
63600, 1, 10, 59.9628790, 10.7363900, 0, 199.43, 192.5, 1.34, 59.7, -221, 959, 11555
63700, 1, 10, 59.9628790, 10.7363950, 0, 199.43, 192.59, 1.34, 56.32, -386, 774, 10976
63800, 1, 10, 59.9628790, 10.7363950, 0, 199.43, 192.59, 1.34, 56.32, -420, 681, 10195
63900, 1, 10, 59.9628790, 10.7363950, 0, 199.43, 192.59, 1.34, 56.32, -464, 705, 9523
64000, 1, 10, 59.9628790, 10.7364000, 0, 199.43, 192.69, 1.23, 55.43, -397, 789, 9406
64100, 1, 10, 59.9628790, 10.7364000, 0, 199.52, 192.69, 1.23, 55.43, -312, 881, 9483
64200, 1, 10, 59.9628790, 10.7364030, 0, 199.52, 192.8, 1.45, 42.6, -199, 933, 9361
64300, 1, 10, 59.9628790, 10.7364030, 0, 199.43, 192.8, 1.45, 42.6, -115, 856, 9158
64400, 1, 10, 59.9628790, 10.7364030, 0, 199.52, 192.8, 1.45, 42.6, -104, 808, 8937
64500, 1, 10, 59.9628870, 10.7364080, 0, 199.43, 192.91, 2.01, 29.76, -25, 781, 8930
64600, 1, 10, 59.9628870, 10.7364080, 0, 199.43, 192.91, 2.01, 29.76, -113, 729, 8729
64700, 1, 10, 59.9628940, 10.7364130, 0, 199.43, 193.02, 2, 27.78, -154, 634, 8616
64800, 1, 10, 59.9628940, 10.7364130, 0, 199.43, 193.02, 2, 27.78, -182, 630, 8595
64900, 1, 10, 59.9628940, 10.7364130, 0, 199.43, 193.02, 2, 27.78, -154, 497, 8525
65000, 1, 10, 59.9628940, 10.7364160, 0, 199.43, 193.15, 1.91, 28.4, -105, 353, 8387
65100, 1, 10, 59.9628940, 10.7364160, 0, 199.35, 193.15, 1.91, 28.4, -68, 370, 8161
65200, 1, 10, 59.9628980, 10.7364210, 0, 199.35, 193.28, 2.22, 29.77, 16, 332, 7906
65300, 1, 10, 59.9628980, 10.7364210, 0, 199.43, 193.28, 2.22, 29.77, 60, 408, 7905
65400, 1, 10, 59.9628980, 10.7364210, 0, 199.43, 193.28, 2.22, 29.77, 146, 420, 7976
65500, 1, 10, 59.9628940, 10.7364460, 0, 199.43, 193.28, 2.44, 26.92, 250, 363, 8004
65600, 1, 10, 59.9628940, 10.7364460, 0, 199.52, 193.28, 2.44, 26.92, 267, 330, 7937
65700, 1, 10, 59.9628940, 10.7364640, 0, 199.61, 193.34, 2.42, 16.76, 275, 310, 7938
65800, 1, 10, 59.9628940, 10.7364640, 0, 199.69, 193.34, 2.42, 16.76, 190, 354, 7903
65900, 1, 10, 59.9628940, 10.7364640, 0, 199.61, 193.34, 2.42, 16.76, 103, 484, 7860
66000, 1, 10, 59.9628980, 10.7364700, 0, 199.69, 193.51, 2.4, 5.83, 46, 553, 7956
66100, 1, 10, 59.9628980, 10.7364700, 0, 199.69, 193.51, 2.4, 5.83, 41, 523, 8135
66200, 1, 10, 59.9629060, 10.7364790, 0, 199.78, 193.67, 2.43, 358.51, 126, 382, 8027
66300, 1, 10, 59.9629060, 10.7364790, 0, 199.78, 193.67, 2.43, 358.51, 107, 452, 7788
66400, 1, 10, 59.9629060, 10.7364790, 0, 199.78, 193.67, 2.43, 358.51, 179, 494, 7827
66500, 1, 10, 59.9629140, 10.7364850, 0, 199.78, 193.89, 2.57, 354.77, 318, 444, 7936
66600, 1, 10, 59.9629140, 10.7364850, 0, 199.78, 193.89, 2.57, 354.77, 407, 419, 7966
66700, 1, 10, 59.9629170, 10.7364860, 0, 199.78, 194.27, 2.69, 351.9, 432, 328, 8001
66800, 1, 10, 59.9629170, 10.7364860, 0, 199.87, 194.27, 2.69, 351.9, 552, 238, 8443
66900, 1, 10, 59.9629170, 10.7364860, 0, 199.95, 194.27, 2.69, 351.9, 512, 216, 8862
67000, 1, 10, 59.9629250, 10.7364890, 0, 200.04, 194.54, 2.72, 348.36, 470, 240, 9115
67100, 1, 10, 59.9629250, 10.7364890, 0, 200.13, 194.54, 2.72, 348.36, 344, 203, 9173
67200, 1, 10, 59.9629330, 10.7364910, 0, 200.13, 194.79, 2.72, 347.51, 286, 169, 9100
67300, 1, 10, 59.9629330, 10.7364910, 0, 200.13, 194.79, 2.72, 347.51, 252, 186, 9059
67400, 1, 10, 59.9629330, 10.7364910, 0, 200.04, 194.79, 2.72, 347.51, 312, 240, 9134
67500, 1, 10, 59.9629360, 10.7364890, 0, 200.04, 194.93, 2.82, 345.78, 345, 260, 9243
67600, 1, 10, 59.9629360, 10.7364890, 0, 200.04, 194.93, 2.82, 345.78, 395, 159, 9418
67700, 1, 10, 59.9629360, 10.7364860, 0, 200.04, 195.07, 2.98, 346.82, 371, 107, 9593
67800, 1, 10, 59.9629360, 10.7364860, 0, 200.04, 195.07, 2.98, 346.82, 360, 116, 9803
67900, 1, 10, 59.9629360, 10.7364860, 0, 200.04, 195.07, 2.98, 346.82, 266, 100, 9916
68000, 1, 10, 59.9629440, 10.7364840, 0, 200.04, 195.2, 3.26, 347.26, 157, 67, 10010
68100, 1, 10, 59.9629440, 10.7364840, 0, 200.04, 195.2, 3.26, 347.26, 120, 27, 10018
68200, 1, 10, 59.9629550, 10.7364800, 0, 200.04, 195.32, 3.27, 347.89, 82, 105, 9992
68300, 1, 10, 59.9629550, 10.7364800, 0, 200.13, 195.32, 3.27, 347.89, 160, 109, 10071
68400, 1, 10, 59.9629550, 10.7364800, 0, 200.13, 195.32, 3.27, 347.89, 178, 81, 10213
68500, 1, 10, 59.9629630, 10.7364790, 0, 200.21, 195.43, 3.26, 347.87, 243, -9, 10414
68600, 1, 10, 59.9629630, 10.7364790, 0, 200.21, 195.43, 3.26, 347.87, 214, -11, 10497
68700, 1, 10, 59.9629710, 10.7364750, 0, 200.21, 195.54, 3.4, 347.5, 135, -12, 10498
68800, 1, 10, 59.9629710, 10.7364750, 0, 200.21, 195.54, 3.4, 347.5, 32, -8, 10449
68900, 1, 10, 59.9629710, 10.7364750, 0, 200.21, 195.54, 3.4, 347.5, -17, -1, 10402
69000, 1, 10, 59.9629750, 10.7364710, 0, 200.21, 195.63, 3.53, 348.42, 7, -15, 10455
69100, 1, 10, 59.9629750, 10.7364710, 0, 200.21, 195.63, 3.53, 348.42, 76, 64, 10788
69200, 1, 10, 59.9629750, 10.7364710, 0, 200.3, 195.63, 3.53, 348.42, 147, 13, 11007
