time, fix, sats, latitute, longitude, sonar, alt, gps_alt, speed, CRS, roll, pitch, yaw
0, 1, 6, 59.9631920, 10.7360070, 0, 207.95, 204.53, 0.02, 111.97, -953, 51, 17243
1000, 1, 7, 59.9631920, 10.7360070, 0, 208.13, 204.53, 0.01, 111.97, -965, 53, 17219
2000, 1, 7, 59.9631920, 10.7360070, 0, 208.22, 204.52, 0.06, 111.97, -968, 44, 17211
3000, 1, 7, 59.9631920, 10.7360070, 0, 208.31, 204.5, 0.04, 111.97, -958, 50, 17194
4000, 1, 7, 59.9631920, 10.7360070, 0, 208.13, 204.5, 0.05, 111.97, -954, 34, 17188
5000, 1, 7, 59.9631920, 10.7360070, 0, 207.95, 204.49, 0.03, 111.97, -960, 49, 17183
6000, 1, 7, 59.9631920, 10.7360070, 0, 208.04, 204.49, 0.03, 111.97, -961, 52, 17173
7000, 1, 7, 59.9631920, 10.7360070, 0, 208.22, 204.49, 0.04, 111.97, -963, 44, 17176
8000, 1, 7, 59.9631920, 10.7360070, 0, 208.22, 204.5, 0.17, 111.97, -219, 57, 17307
9000, 1, 7, 59.9631920, 10.7360030, 0, 208.22, 204.49, 0.03, 111.97, -178, 61, 17226
10000, 1, 7, 59.9631920, 10.7360030, 0, 208.22, 204.47, 0.09, 111.97, -238, 54, 17184
11000, 1, 7, 59.9631920, 10.7360050, 0, 207.95, 204.46, 0.2, 111.97, 1705, 64, 17276
12000, 1, 7, 59.9631880, 10.7360070, 0, 208.13, 204.42, 0.38, 92.42, 452, 25, 17015
13000, 1, 7, 59.9631880, 10.7360160, 0, 208.13, 204.43, 0.73, 91.09, -48, 0, 17025
14000, 1, 7, 59.9631880, 10.7360320, 0, 208.22, 204.41, 0.61, 96.53, -35, 15, 17025
15000, 1, 7, 59.9631880, 10.7360400, 0, 208.31, 204.4, 0.29, 133.35, -13, 177, 16994
16000, 1, 7, 59.9631880, 10.7360380, 0, 208.4, 204.47, 0.23, 159.74, -485, 194, 16934
17000, 1, 7, 59.9631690, 10.7360560, 0, 207.95, 204.54, 0.34, 146.16, -926, 53, 16959
18000, 1, 7, 59.9631690, 10.7360600, 0, 208.04, 204.52, 0.09, 146.16, -411, 126, 17033
19000, 1, 7, 59.9631730, 10.7360500, 0, 208.13, 204.37, 0.2, 146.16, 683, 80, 17008
20000, 1, 7, 59.9631690, 10.7360500, 0, 208.22, 204.22, 0.14, 146.16, 653, 65, 16863
21000, 1, 7, 59.9631690, 10.7360520, 0, 208.31, 204.1, 0.06, 146.16, 494, 80, 16790
22000, 1, 7, 59.9631690, 10.7360500, 0, 208.22, 204.08, 0.09, 146.16, 645, 70, 16720
23000, 1, 7, 59.9631690, 10.7360520, 0, 208.13, 204.07, 0.18, 146.16, -1005, 73, 16698
24000, 1, 7, 59.9631690, 10.7360530, 0, 208.04, 204.06, 0.07, 146.16, -1199, 6, 16807
25000, 1, 7, 59.9631690, 10.7360530, 0, 208.04, 204.04, 0.11, 146.16, -1087, 615, 17342
26000, 1, 7, 59.9631610, 10.7360520, 0, 208.31, 203.97, 1.27, 188.41, -368, 222, 18857
27000, 1, 7, 59.9631500, 10.7360450, 0, 208.57, 203.77, 1.65, 189.55, -157, 394, 17761
28000, 1, 7, 59.9631310, 10.7360430, 0, 208.57, 203.41, 3.53, 188.09, 644, -75, 18749
29000, 1, 7, 59.9630930, 10.7360520, 0, 208.22, 202.81, 4.24, 182.35, -306, -401, 18713
30000, 1, 7, 59.9630580, 10.7360520, 0, 208.4, 202.23, 3.52, 184.03, -346, 327, 18665
31000, 1, 7, 59.9630280, 10.7360660, 0, 208.49, 201.74, 3.72, 173.87, -504, 297, 18263
32000, 1, 7, 59.9630090, 10.7361280, 0, 208.66, 201.01, 3.65, 114.98, -212, 345, 16421
33000, 1, 7, 59.9629940, 10.7361830, 0, 208.49, 200.27, 2.69, 126.33, -672, 463, 15251
34000, 1, 7, 59.9629820, 10.7362160, 0, 208.66, 199.7, 2.24, 101.9, -496, 438, 12567
35000, 1, 7, 59.9629750, 10.7362560, 0, 208.66, 199.27, 2.32, 108.22, 596, 507, 11003
36000, 1, 7, 59.9629440, 10.7362980, 0, 208.13, 198.82, 2.97, 144.81, 863, 192, 12261
37000, 1, 7, 59.9628940, 10.7363760, 0, 208.66, 198.65, 3.47, 156.17, 129, 199, 15093
38000, 1, 7, 59.9628490, 10.7364240, 0, 208.66, 198.66, 5.81, 143.89, -1511, 337, 14797
39000, 1, 7, 59.9628030, 10.7364760, 0, 209.55, 198.58, 5.38, 145.76, -1023, 68, 13145
40000, 1, 7, 59.9627760, 10.7365460, 0, 210.35, 198.68, 4.72, 113.35, -536, 504, 11896
41000, 1, 7, 59.9627570, 10.7366080, 0, 210.97, 199.01, 3.09, 104.92, -175, 1179, 9717
42000, 1, 7, 59.9627650, 10.7366720, 0, 211.15, 199.5, 2.63, 64.13, -769, 722, 7546
43000, 1, 7, 59.9627720, 10.7367110, 0, 211.5, 200.27, 2.35, 92.41, -521, 1007, 4909
44000, 1, 6, 59.9627910, 10.7367580, 0, 211.86, 200.11, 1.81, 60.35, -783, 270, 2587
45000, 1, 7, 59.9627950, 10.7368120, 0, 212.13, 200.21, 2.66, 56.95, -927, 416, 35927
46000, 1, 6, 59.9628220, 10.7368320, 0, 212.57, 201.26, 3.39, 357.53, -268, 392, 33464
47000, 1, 7, 59.9628600, 10.7368250, 0, 212.75, 201.69, 4.08, 353.05, 98, 206, 32534
48000, 1, 6, 59.9628940, 10.7367980, 0, 212.66, 202.58, 5.82, 348.72, 530, -172, 32951
49000, 1, 6, 59.9629440, 10.7367680, 0, 212.93, 202.91, 5.83, 343.92, 59, -136, 33158
50000, 1, 7, 59.9629940, 10.7367630, 0, 213.28, 203, 5.44, 345.53, -281, 108, 32870
51000, 1, 7, 59.9630470, 10.7367450, 0, 213.55, 203.22, 4.95, 352.73, 360, 261, 32795
52000, 1, 6, 59.9630930, 10.7367300, 0, 213.64, 203.39, 5.14, 350.29, 1071, 170, 34016
53000, 1, 6, 59.9631350, 10.7367280, 0, 213.55, 203.69, 4.54, 2.83, 1556, 320, 796
54000, 1, 7, 59.9631610, 10.7367600, 0, 213.46, 204.1, 5.11, 12.19, 1756, 623, 4114
55000, 1, 7, 59.9631920, 10.7368010, 0, 213.55, 204.97, 3.94, 19.27, 579, 866, 6495
56000, 1, 7, 59.9632190, 10.7368400, 0, 213.73, 205.86, 3.21, 51.73, -25, 882, 6499
57000, 1, 6, 59.9632190, 10.7369000, 0, 213.99, 208.02, 2.16, 58.19, 0, 963, 6300
58000, 1, 7, 59.9632300, 10.7369880, 0, 214.53, 209.87, 2.1, 64.59, -15, 686, 5975
59000, 1, 7, 59.9632450, 10.7370810, 0, 214.88, 211.44, 2.39, 73.23, 48, 439, 6220
60000, 1, 7, 59.9632260, 10.7371850, 0, 215.15, 213.44, 3.33, 84.73, -37, 134, 6462
61000, 1, 7, 59.9632110, 10.7372750, 0, 215.24, 216.39, 4.02, 92.15, -29, -4, 6828
62000, 1, 8, 59.9632070, 10.7373510, 0, 215.77, 219.22, 4.62, 98.48, 53, -176, 7299
63000, 1, 8, 59.9632000, 10.7374450, 0, 215.77, 221.98, 5.44, 102.09, -125, -319, 7787
64000, 1, 8, 59.9631810, 10.7375460, 0, 216.3, 224.52, 5.65, 108.96, 76, -181, 8090
65000, 1, 8, 59.9631690, 10.7376530, 0, 216.39, 226.95, 5.78, 108.6, 50, -29, 8289
66000, 1, 7, 59.9631500, 10.7377590, 0, 216.04, 229.06, 4.96, 107.73, -252, 215, 8309
67000, 1, 7, 59.9631350, 10.7378700, 0, 215.59, 230.31, 7.19, 99.75, -45, -213, 8166
68000, 1, 8, 59.9631230, 10.7379850, 0, 215.5, 231.14, 7.37, 94.83, 39, -248, 8240
69000, 1, 8, 59.9631160, 10.7381110, 0, 215.41, 231.87, 7.27, 101.92, -21, -188, 8397
70000, 1, 8, 59.9631040, 10.7382250, 0, 215.15, 232.65, 5.24, 103.86, 133, 272, 8376
71000, 1, 8, 59.9630930, 10.7383360, 0, 214.88, 233.72, 8.81, 96.57, -72, -585, 8380
72000, 1, 7, 59.9630780, 10.7384760, 0, 214.88, 234.7, 7.37, 100.95, -169, -372, 8561
73000, 1, 9, 59.9630660, 10.7386080, 0, 214.26, 235.73, 8.06, 102.28, -383, -389, 8274
74000, 1, 9, 59.9630550, 10.7387560, 0, 213.73, 236.62, 8.76, 98.68, 378, -521, 8506
75000, 1, 9, 59.9630390, 10.7389080, 0, 213.81, 237.3, 8.88, 93.97, 382, -687, 8929
76000, 1, 9, 59.9630280, 10.7390400, 0, 213.1, 237.95, 6.32, 97.32, -400, 124, 8446
77000, 1, 9, 59.9630130, 10.7391530, 0, 212.93, 238.9, 6.8, 102.03, 295, -23, 8197
78000, 1, 10, 59.9630010, 10.7392650, 0, 212.48, 239.82, 4.74, 115.9, 56, 180, 8505
79000, 1, 9, 59.9629900, 10.7393550, 0, 211.68, 240.91, 6.81, 112.1, -48, -127, 8270
80000, 1, 9, 59.9629750, 10.7394680, 0, 211.42, 242.1, 7.86, 108.29, 158, -380, 8399
81000, 1, 9, 59.9629630, 10.7395830, 0, 210.97, 243.47, 5.98, 108.41, 197, -114, 8714
82000, 1, 10, 59.9629440, 10.7396780, 0, 210.7, 245.32, 6.38, 112.22, -62, -24, 8732
83000, 1, 9, 59.9629170, 10.7397760, 0, 209.99, 247.15, 5.52, 111.29, 274, -220, 8855
84000, 1, 10, 59.9629060, 10.7398800, 0, 209.82, 248.36, 6.29, 109.28, 189, -317, 9349
85000, 1, 10, 59.9628870, 10.7399840, 0, 209.28, 249.23, 6.29, 110.88, 328, -728, 9981
86000, 1, 10, 59.9628600, 10.7400870, 0, 208.4, 250, 5.37, 115.85, -45, -1069, 10529
87000, 1, 9, 59.9628410, 10.7401610, 0, 208.22, 250.79, 3.52, 115.06, 124, 17, 10882
88000, 1, 9, 59.9628300, 10.7402230, 0, 208.13, 251.48, 4.8, 118.11, -181, 181, 10696
89000, 1, 9, 59.9628030, 10.7403010, 0, 208.22, 252.1, 5.6, 121.96, 33, -63, 10615
90000, 1, 9, 59.9627760, 10.7403930, 0, 208.31, 252.65, 6.2, 121.41, 163, -260, 10967
91000, 1, 9, 59.9627460, 10.7404910, 0, 207.77, 253, 6.91, 123.19, 731, -435, 11669
92000, 1, 9, 59.9627080, 10.7405930, 0, 207.86, 253.02, 7.16, 128.31, 242, -392, 12595
93000, 1, 9, 59.9626690, 10.7406880, 0, 207.06, 252.8, 7.51, 134.66, 340, -312, 13090
94000, 1, 9, 59.9626160, 10.7407750, 0, 206.8, 252.46, 7.24, 146.4, 340, -254, 13706
95000, 1, 8, 59.9625590, 10.7408480, 0, 206.44, 252.18, 7.83, 146.35, 115, -303, 13960
96000, 1, 8, 59.9625020, 10.7409210, 0, 206.62, 251.76, 8.43, 150.66, -6, -342, 14040
97000, 1, 8, 59.9624330, 10.7409960, 0, 205.03, 251.33, 8.63, 151.51, 40, -372, 14254
98000, 1, 8, 59.9623600, 10.7410660, 0, 204.41, 250.89, 9.07, 155.1, 34, -453, 14200
99000, 1, 8, 59.9622920, 10.7411430, 0, 203.26, 250.38, 9.26, 151.03, -202, -522, 13946
100000, 1, 7, 59.9622150, 10.7412180, 0, 203.52, 249.79, 9.06, 153.31, -72, -597, 13937
101000, 1, 7, 59.9621430, 10.7412910, 0, 202.55, 249.14, 8.95, 153.48, 38, -410, 13968
102000, 1, 7, 59.9620670, 10.7413610, 0, 201.57, 248.47, 8.84, 155.89, 454, -278, 14057
103000, 1, 7, 59.9619980, 10.7414210, 0, 200.33, 248, 8.64, 158.57, 377, -345, 14435
104000, 1, 7, 59.9619260, 10.7414730, 0, 199.35, 247.63, 7.93, 162.73, 856, -419, 15384
105000, 1, 7, 59.9618570, 10.7415000, 0, 199.09, 247.24, 7.54, 166.15, 1571, -328, 17004
106000, 1, 7, 59.9617920, 10.7414980, 0, 198.2, 246.83, 6.99, 193.81, 1278, -261, 19588
107000, 1, 7, 59.9617350, 10.7414510, 0, 198.02, 246.53, 6.88, 212.65, 366, -193, 20983
108000, 1, 7, 59.9616890, 10.7413760, 0, 197.49, 246.3, 6.88, 215.39, 275, -191, 21972
109000, 1, 7, 59.9616430, 10.7412880, 0, 197.05, 246.11, 6.99, 219.14, -296, -254, 22186
110000, 1, 7, 59.9616010, 10.7411990, 0, 196.25, 245.9, 6.29, 223.45, -190, -542, 21914
111000, 1, 7, 59.9615630, 10.7411250, 0, 195.72, 245.7, 5.4, 221.82, -460, -274, 21519
112000, 1, 7, 59.9615250, 10.7410680, 0, 195.63, 245.5, 4.54, 215.38, -565, -163, 20743
113000, 1, 7, 59.9614910, 10.7410320, 0, 195.45, 245.36, 3.39, 202.19, -376, -285, 19422
114000, 1, 7, 59.9614640, 10.7410150, 0, 195.36, 245.2, 2.09, 187.91, -202, 13, 18547
115000, 1, 7, 59.9614520, 10.7410100, 0, 195.19, 245.11, 1.61, 177.97, -42, 181, 18013
116000, 1, 7, 59.9614410, 10.7410130, 0, 194.92, 245.27, 1.55, 180.3, -204, 388, 17976
117000, 1, 7, 59.9614220, 10.7410120, 0, 194.83, 244.95, 2.02, 182.5, -1013, 648, 16460
118000, 1, 7, 59.9614030, 10.7410320, 0, 195.27, 244.44, 3.29, 139.86, -798, 500, 14354
119000, 1, 7, 59.9613840, 10.7411030, 0, 195.54, 243.82, 4.05, 120.54, -749, 160, 11735
120000, 1, 7, 59.9613690, 10.7411800, 0, 195.54, 243.67, 5.35, 102.87, -60, 35, 10193
121000, 1, 7, 59.9613570, 10.7412810, 0, 195.63, 243.6, 6.18, 101.9, 43, -74, 10136
122000, 1, 7, 59.9613460, 10.7413930, 0, 195.45, 243.55, 6.46, 102.16, -29, -119, 9939
123000, 1, 7, 59.9613380, 10.7415050, 0, 195.81, 243.48, 5.96, 97.1, -338, 9, 9530
124000, 1, 7, 59.9613270, 10.7416100, 0, 195.63, 243.35, 6.12, 103.59, 125, 225, 9159
125000, 1, 7, 59.9613110, 10.7417200, 0, 195.81, 243.29, 6.2, 98.05, 20, 108, 9280
126000, 1, 7, 59.9613040, 10.7418310, 0, 195.98, 243.29, 6.56, 98.67, 134, 71, 9251
127000, 1, 7, 59.9612920, 10.7419430, 0, 196.25, 243.34, 6.07, 99.25, 52, 219, 9262
128000, 1, 7, 59.9612850, 10.7420550, 0, 196.07, 243.37, 6.57, 99.06, -171, 151, 8929
129000, 1, 7, 59.9612730, 10.7421710, 0, 195.98, 243.45, 6.89, 104.19, -14, 69, 8873
130000, 1, 7, 59.9612620, 10.7422900, 0, 196.43, 243.58, 6.73, 99.05, 35, 96, 8850
131000, 1, 7, 59.9612460, 10.7424070, 0, 196.43, 243.76, 6.5, 100.31, 94, 206, 9112
132000, 1, 7, 59.9612430, 10.7425200, 0, 196.78, 244.03, 6.62, 101.76, -69, 209, 8784
133000, 1, 7, 59.9612270, 10.7426360, 0, 197.14, 244.29, 6.71, 99.37, 67, 183, 8685
134000, 1, 7, 59.9612240, 10.7427530, 0, 197.49, 244.59, 6.35, 99.99, 186, 220, 8974
135000, 1, 7, 59.9612050, 10.7428600, 0, 196.78, 245.07, 5.89, 105.23, -206, 251, 8548
136000, 1, 7, 59.9611890, 10.7429630, 0, 197.05, 245.58, 5.86, 101.46, 107, 116, 8131
137000, 1, 7, 59.9611850, 10.7430660, 0, 197.05, 246.07, 5.82, 97.26, 41, 14, 8622
138000, 1, 7, 59.9611780, 10.7431660, 0, 197.14, 246.55, 5.28, 100.74, -48, 24, 8599
139000, 1, 7, 59.9611660, 10.7432560, 0, 196.96, 246.97, 4.66, 100.66, -39, -141, 8709
140000, 1, 7, 59.9611660, 10.7433300, 0, 196.87, 247.38, 3.31, 95.94, -168, 10, 8765
141000, 1, 7, 59.9611590, 10.7433840, 0, 196.52, 247.7, 2.44, 96.6, -502, 350, 7920
142000, 1, 7, 59.9611660, 10.7434530, 0, 196.69, 247.05, 2.1, 80.57, -379, 536, 6195
143000, 1, 7, 59.9611700, 10.7435260, 0, 196.87, 246.46, 2.65, 79.41, 967, 567, 6450
144000, 1, 7, 59.9611780, 10.7435950, 0, 196.96, 246.93, 3.55, 82.69, 209, 424, 8086
145000, 1, 7, 59.9611700, 10.7436750, 0, 197.31, 246.78, 3.93, 106.19, -233, 280, 7577
146000, 1, 7, 59.9612080, 10.7438000, 0, 197.4, 245.37, 4.61, 101.75, 728, 202, 7018
147000, 1, 7, 59.9612080, 10.7439000, 0, 197.4, 244.57, 5.41, 110.99, -419, -24, 9279
148000, 1, 7, 59.9611850, 10.7439930, 0, 197.23, 244.68, 5.93, 117.22, -1169, -218, 8131
149000, 1, 7, 59.9611660, 10.7440880, 0, 197.49, 244.7, 5.25, 102.38, -500, -454, 7188
150000, 1, 7, 59.9611660, 10.7441730, 0, 197.4, 244.7, 3.78, 87.69, 470, -267, 8405
151000, 1, 7, 59.9611660, 10.7442310, 0, 197.4, 244.74, 2.46, 93.86, 244, 473, 9226
152000, 1, 7, 59.9611660, 10.7442930, 0, 197.49, 243.25, 2.65, 99.43, 26, 427, 9016
153000, 1, 7, 59.9611700, 10.7443480, 0, 197.23, 243.78, 2.42, 119.19, -156, 723, 8262
154000, 1, 7, 59.9611700, 10.7444110, 0, 197.23, 242.69, 3.29, 113.45, -227, 549, 6928
155000, 1, 7, 59.9611700, 10.7444950, 0, 197.31, 241.04, 4.11, 112.62, -52, 215, 6103
156000, 1, 7, 59.9611590, 10.7445680, 0, 197.4, 241.57, 4.81, 109.56, -141, 20, 5778
157000, 1, 7, 59.9611470, 10.7446560, 0, 197.49, 242.11, 5.56, 105.27, 84, -75, 6317
158000, 1, 7, 59.9611320, 10.7447510, 0, 197.67, 242.66, 6.13, 106, 52, -195, 7025
159000, 1, 7, 59.9611210, 10.7448490, 0, 197.4, 243.1, 4.97, 101.55, 152, -23, 7547
160000, 1, 7, 59.9611050, 10.7449380, 0, 197.31, 243.49, 5.49, 107.35, -26, 31, 7838
161000, 1, 7, 59.9610940, 10.7450360, 0, 197.31, 243.83, 6.04, 110.37, 0, -157, 8120
162000, 1, 7, 59.9610750, 10.7451150, 0, 197.4, 244.08, 6.59, 112.81, -122, -207, 8397
163000, 1, 7, 59.9610440, 10.7452530, 0, 197.14, 244.5, 6.36, 111.42, -214, -12, 8388
164000, 1, 7, 59.9610290, 10.7453360, 0, 197.23, 244.67, 6.68, 105.72, 53, 52, 8662
165000, 1, 7, 59.9610180, 10.7454530, 0, 197.14, 244.74, 7.01, 104.13, -155, -20, 8805
166000, 1, 7, 59.9609990, 10.7455690, 0, 196.78, 244.78, 7.86, 96.27, -62, -157, 8826
167000, 1, 7, 59.9609910, 10.7457030, 0, 196.52, 245.08, 7.29, 102.94, -29, -164, 8891
168000, 1, 7, 59.9609720, 10.7458310, 0, 196.78, 245.43, 7.15, 105.48, 102, -129, 9195
169000, 1, 7, 59.9609530, 10.7459530, 0, 196.52, 245.73, 7.34, 106.27, 45, 0, 9371
170000, 1, 7, 59.9609340, 10.7460780, 0, 196.52, 245.83, 7.49, 107.28, -128, -95, 9423
171000, 1, 7, 59.9609150, 10.7462060, 0, 196.25, 245.87, 7.56, 107.7, -32, -25, 9384
172000, 1, 7, 59.9608960, 10.7463360, 0, 196.43, 245.88, 7.61, 108.25, 31, -60, 9378
173000, 1, 7, 59.9608760, 10.7464680, 0, 195.98, 245.85, 7.67, 107.69, -72, -151, 9542
174000, 1, 7, 59.9608500, 10.7466000, 0, 196.25, 245.81, 7.68, 109.16, 1, -98, 9546
175000, 1, 8, 59.9608310, 10.7467280, 0, 195.27, 245.78, 7.68, 110.33, 88, -55, 9692
176000, 1, 8, 59.9608080, 10.7468560, 0, 195.27, 245.84, 7.38, 110.09, 486, -211, 9845
177000, 1, 8, 59.9607890, 10.7469780, 0, 195.1, 245.99, 6.61, 110.06, 1899, -260, 11480
178000, 1, 8, 59.9607620, 10.7470810, 0, 194.3, 246.18, 6.03, 116.89, 2042, 101, 15320
179000, 1, 8, 59.9607240, 10.7471480, 0, 194.12, 246.52, 5.11, 162.86, 428, 240, 18296
180000, 1, 8, 59.9606780, 10.7471560, 0, 194.21, 246.91, 5.9, 187.55, -29, -69, 18315
181000, 1, 8, 59.9606290, 10.7471380, 0, 193.94, 247.25, 5.81, 190.92, -225, -193, 18788
182000, 1, 8, 59.9605750, 10.7471160, 0, 193.5, 247.62, 5.23, 192.66, -680, 0, 18421
183000, 1, 8, 59.9605290, 10.7471010, 0, 192.97, 248.01, 5.49, 188.91, -440, 0, 17538
184000, 1, 8, 59.9604800, 10.7471080, 0, 191.99, 248.42, 6.77, 171.09, -432, -249, 16987
185000, 1, 8, 59.9604150, 10.7471160, 0, 191.29, 248.88, 6.82, 176.31, -228, -465, 16220
186000, 1, 8, 59.9603540, 10.7471280, 0, 190.4, 249.32, 7.16, 172.44, 181, -485, 15694
187000, 1, 8, 59.9602890, 10.7471510, 0, 189.78, 249.74, 7.6, 168.08, -239, -572, 15096
188000, 1, 8, 59.9602240, 10.7471800, 0, 188.8, 250.09, 8.12, 167.31, -109, -704, 14664
189000, 1, 8, 59.9601480, 10.7472160, 0, 187.65, 250.41, 9.43, 164, -180, -930, 14171
190000, 1, 8, 59.9600720, 10.7472720, 0, 186.68, 250.62, 9.56, 160.23, 436, -891, 14081
191000, 1, 8, 59.9599880, 10.7473250, 0, 185.97, 250.72, 9.4, 162.91, 1230, -754, 15092
192000, 1, 8, 59.9599040, 10.7473600, 0, 184.46, 250.75, 9.32, 168.53, 1402, -608, 16226
193000, 1, 8, 59.9598200, 10.7473680, 0, 183.4, 250.79, 9.86, 187.78, 1700, -735, 17872
194000, 1, 8, 59.9597320, 10.7473320, 0, 182.61, 250.76, 9.79, 200.83, 1607, -604, 19922
195000, 1, 8, 59.9596600, 10.7472500, 0, 181.81, 250.68, 9.6, 220.42, 176, -487, 21034
196000, 1, 8, 59.9595990, 10.7471280, 0, 179.77, 250.61, 9.4, 232.71, -248, -461, 20733
197000, 1, 7, 59.9595450, 10.7469960, 0, 178.98, 250.54, 9.41, 233.65, -838, -473, 20170
198000, 1, 8, 59.9594960, 10.7468680, 0, 176.85, 250.4, 9.27, 225.81, -1915, -442, 18095
199000, 1, 7, 59.9594310, 10.7467700, 0, 176.41, 250.28, 8.97, 204.79, -1576, -399, 15620
200000, 1, 8, 59.9593540, 10.7467210, 0, 175, 250.2, 9.04, 189.79, -1077, -404, 14056
201000, 1, 8, 59.9592700, 10.7467110, 0, 174.29, 250.14, 9.24, 176.69, -743, -470, 12766
202000, 1, 8, 59.9591940, 10.7467250, 0, 172.61, 250.08, 9.31, 172.02, -207, -454, 12369
203000, 1, 8, 59.9591100, 10.7467650, 0, 171.1, 249.97, 8.72, 161.96, 504, -413, 12208
204000, 1, 8, 59.9590340, 10.7468110, 0, 170.49, 249.83, 9.1, 164.3, 1039, -579, 13394
205000, 1, 8, 59.9589500, 10.7468400, 0, 169.69, 249.72, 10.07, 168.97, 1206, -783, 14324
206000, 1, 8, 59.9588620, 10.7468510, 0, 168.81, 249.62, 9.35, 172.56, 1470, -552, 16119
207000, 1, 7, 59.9587820, 10.7468200, 0, 167.39, 249.57, 8.96, 202.59, 1501, -290, 18327
208000, 1, 7, 59.9587060, 10.7467460, 0, 166.95, 249.54, 9.58, 213.53, -228, -465, 19078
209000, 1, 7, 59.9586450, 10.7466400, 0, 166.15, 249.58, 9.06, 221.46, 32, -399, 19140
210000, 1, 8, 59.9585840, 10.7465310, 0, 164.74, 249.68, 8.74, 225.62, -256, -251, 19219
211000, 1, 8, 59.9585270, 10.7464180, 0, 164.12, 249.87, 8.66, 226.35, -64, -296, 19027
212000, 1, 8, 59.9584770, 10.7463110, 0, 163.24, 250.14, 8.64, 221.01, -84, -303, 19107
213000, 1, 8, 59.9584200, 10.7462060, 0, 162.97, 250.46, 7.8, 221.43, -74, -147, 18868
214000, 1, 8, 59.9583660, 10.7461130, 0, 161.83, 250.83, 6.87, 224.95, -67, 532, 19028
215000, 1, 7, 59.9583240, 10.7460430, 0, 161.74, 251.23, 5.66, 222.37, -156, 262, 19461
216000, 1, 8, 59.9582790, 10.7459960, 0, 160.59, 251.65, 5.28, 218.25, -261, 254, 19830
217000, 1, 8, 59.9582410, 10.7459350, 0, 160.5, 252.15, 7.06, 213.78, -434, -334, 19957
218000, 1, 8, 59.9581830, 10.7458600, 0, 159.88, 252.72, 7.55, 215.39, -1580, -596, 18469
219000, 1, 8, 59.9581300, 10.7457850, 0, 159.79, 253.32, 6.6, 205.96, -1192, -570, 16670
220000, 1, 8, 59.9580730, 10.7457510, 0, 158.74, 253.98, 7.15, 179.71, -1129, -538, 14995
221000, 1, 8, 59.9580040, 10.7457720, 0, 157.59, 254.36, 8.36, 163.46, -1140, -700, 13456
222000, 1, 8, 59.9579320, 10.7458310, 0, 156.26, 254.19, 8.92, 150.24, -1435, -697, 11773
223000, 1, 8, 59.9578700, 10.7459150, 0, 156, 253.72, 8.14, 136.88, -963, -432, 10047
224000, 1, 8, 59.9578170, 10.7460260, 0, 154.85, 253.18, 8.37, 122.44, 514, -524, 10001
225000, 1, 8, 59.9577790, 10.7461590, 0, 154.94, 252.57, 8.83, 122.69, 563, -562, 10614
226000, 1, 8, 59.9577290, 10.7462910, 0, 153.53, 251.95, 9.37, 128.8, 872, -374, 11467
227000, 1, 8, 59.9576760, 10.7464150, 0, 153.09, 251.41, 8.44, 130.57, 1190, -209, 12711
228000, 1, 8, 59.9576190, 10.7465230, 0, 152.12, 251.05, 8.77, 139.08, 791, -259, 13932
229000, 1, 8, 59.9575540, 10.7466010, 0, 151.59, 250.7, 8.98, 144.26, 343, -355, 14766
230000, 1, 7, 59.9574780, 10.7466550, 0, 150.88, 250.25, 8.61, 150.45, 218, -278, 15017
231000, 1, 7, 59.9574090, 10.7466900, 0, 150.62, 249.75, 8.65, 156.63, 982, -476, 15590
232000, 1, 7, 59.9573330, 10.7467160, 0, 150.26, 249.08, 8.37, 161.64, 170, -99, 16105
233000, 1, 7, 59.9572530, 10.7467400, 0, 149.47, 248.45, 8.85, 165.63, 329, -221, 16321
234000, 1, 7, 59.9571760, 10.7467510, 0, 148.32, 248, 8.22, 169.82, 67, -132, 16564
235000, 1, 7, 59.9571000, 10.7467480, 0, 148.24, 247.56, 8.51, 173.91, 419, 21, 17098
236000, 1, 7, 59.9570240, 10.7467360, 0, 148.06, 247.27, 8.39, 178.13, 242, -261, 17561
237000, 1, 7, 59.9569470, 10.7467110, 0, 148.15, 247.05, 7.73, 182.49, 513, -45, 18432
238000, 1, 7, 59.9568820, 10.7466750, 0, 147.53, 246.77, 7.47, 187.36, 139, 61, 18956
239000, 1, 7, 59.9568180, 10.7466320, 0, 147.44, 246.48, 7.28, 191.66, 662, -254, 19378
240000, 1, 7, 59.9567570, 10.7465810, 0, 146.38, 246.19, 7.62, 195.47, 568, -278, 19921
241000, 1, 7, 59.9566990, 10.7465230, 0, 146.12, 245.94, 7.94, 199.4, 427, -442, 20728
242000, 1, 7, 59.9566350, 10.7464450, 0, 144.88, 245.67, 7.79, 204.32, 22, -715, 21031
243000, 1, 7, 59.9565810, 10.7463680, 0, 143.74, 245.34, 6.7, 208.4, -109, -670, 21205
244000, 1, 7, 59.9565390, 10.7463010, 0, 143.21, 245.03, 5.85, 214.68, -29, -586, 21411
245000, 1, 7, 59.9564930, 10.7462410, 0, 142.42, 244.69, 5.03, 218.16, -91, -525, 21594
246000, 1, 8, 59.9564590, 10.7461930, 0, 141.27, 244.35, 4.2, 208.85, 75, -1018, 21607
247000, 1, 7, 59.9564360, 10.7461600, 0, 140.74, 244.08, 1.62, 213.22, -163, -408, 22042
248000, 1, 7, 59.9564210, 10.7461480, 0, 140.74, 243.09, 1.34, 207.2, -291, 90, 21405
249000, 1, 7, 59.9564090, 10.7461500, 0, 140.74, 242.02, 1.78, 207.15, -155, -144, 19681
250000, 1, 7, 59.9563980, 10.7461550, 0, 140.66, 240.91, 1.11, 202.63, -53, -484, 20286
251000, 1, 8, 59.9563900, 10.7461650, 0, 140.66, 239.52, 0.47, 201.94, -667, -238, 20537
252000, 1, 8, 59.9563900, 10.7461760, 0, 140.39, 238.08, 0.29, 201.94, -1068, -64, 20696
253000, 1, 8, 59.9563900, 10.7461880, 0, 140.13, 236.65, 0.03, 201.94, -979, 78, 21349
254000, 1, 7, 59.9563900, 10.7461880, 0, 140.39, 235.87, 0.39, 201.94, -151, 74, 24363
255000, 1, 7, 59.9563900, 10.7461780, 0, 140.3, 235.78, 1.19, 277.32, -80, 112, 27734
256000, 1, 7, 59.9563900, 10.7461480, 0, 140.39, 235.7, 2.5, 284.26, 359, 268, 29402
257000, 1, 8, 59.9564020, 10.7460960, 0, 140.57, 235.61, 3.68, 289.6, 613, 457, 32402
258000, 1, 8, 59.9564170, 10.7460310, 0, 140.83, 235.48, 4.43, 305.55, 234, 383, 33397
259000, 1, 8, 59.9564480, 10.7459680, 0, 140.74, 235.33, 5.49, 314.34, 16, 322, 32628
260000, 1, 8, 59.9564780, 10.7458920, 0, 141.27, 235.1, 5.9, 312.32, 437, 172, 32635
261000, 1, 8, 59.9565200, 10.7458120, 0, 141.71, 234.77, 6.24, 315.96, 220, 85, 32789
262000, 1, 9, 59.9565620, 10.7457350, 0, 141.89, 234.3, 6.43, 318.19, -120, 36, 32722
263000, 1, 9, 59.9566080, 10.7456560, 0, 141.71, 233.78, 7, 320.74, -142, 161, 32320
264000, 1, 9, 59.9566570, 10.7455760, 0, 141.8, 233.4, 6.88, 318.93, -57, 194, 32148
265000, 1, 9, 59.9567030, 10.7454950, 0, 141.89, 233.14, 6.56, 317.65, 130, 396, 32174
266000, 1, 9, 59.9567410, 10.7454160, 0, 142.24, 232.99, 6.91, 318.8, -118, 390, 32166
267000, 1, 9, 59.9567870, 10.7453370, 0, 142.77, 232.92, 6.61, 318.48, 63, 356, 32068
268000, 1, 9, 59.9568330, 10.7452600, 0, 143.74, 232.86, 6.34, 318.23, -98, 327, 31913
269000, 1, 9, 59.9568790, 10.7451850, 0, 143.92, 232.72, 6.28, 319.18, -20, 439, 31756
270000, 1, 9, 59.9569210, 10.7451110, 0, 144, 232.5, 6.02, 317.73, -137, 407, 31622
271000, 1, 9, 59.9569660, 10.7450360, 0, 144.27, 232.4, 6.19, 319.4, 74, 300, 31479
272000, 1, 8, 59.9570050, 10.7449670, 0, 144.27, 232.49, 5.17, 315.3, -507, 458, 30989
273000, 1, 8, 59.9570350, 10.7449010, 0, 144.44, 232.62, 5.4, 315.33, -112, 517, 30919
274000, 1, 8, 59.9570690, 10.7448360, 0, 144.71, 232.74, 4.78, 307.53, -251, 754, 30515
275000, 1, 8, 59.9570960, 10.7447640, 0, 144.97, 232.92, 5.11, 304.8, -135, 756, 30648
276000, 1, 8, 59.9571150, 10.7447050, 0, 145.24, 233.07, 5.31, 303.91, -344, 555, 30334
277000, 1, 9, 59.9571380, 10.7446200, 0, 145.68, 233.24, 5.91, 304.99, -141, 428, 29921
278000, 1, 9, 59.9571720, 10.7445330, 0, 146.21, 233.31, 6.19, 304.78, -30, 384, 30163
279000, 1, 9, 59.9572030, 10.7444410, 0, 146.56, 233.38, 5.97, 302.69, -232, 413, 30106
280000, 1, 9, 59.9572330, 10.7443500, 0, 146.91, 233.45, 5.95, 301.09, -59, 432, 30086
281000, 1, 9, 59.9572600, 10.7442580, 0, 147.09, 233.5, 6.09, 304.29, -48, 349, 30407
282000, 1, 9, 59.9572940, 10.7441640, 0, 147.35, 233.59, 6.1, 300.87, -139, 523, 30345
283000, 1, 9, 59.9573170, 10.7440700, 0, 147.71, 233.74, 6.12, 301.9, 57, 408, 30278
284000, 1, 9, 59.9573520, 10.7439760, 0, 147.79, 233.93, 6.18, 299, -65, 383, 30169
285000, 1, 9, 59.9573750, 10.7438760, 0, 148.41, 234.13, 5.94, 298.1, 291, 621, 30454
286000, 1, 9, 59.9574010, 10.7437830, 0, 148.68, 234.36, 5.99, 300.91, -159, 682, 30576
287000, 1, 9, 59.9574280, 10.7436950, 0, 149.38, 234.63, 5.79, 303.33, -114, 530, 30573
288000, 1, 9, 59.9574580, 10.7436070, 0, 150.35, 234.92, 6.13, 301.47, -307, 565, 30293
289000, 1, 8, 59.9574850, 10.7435130, 0, 150.35, 235.23, 5.75, 297.64, 120, 628, 30433
290000, 1, 8, 59.9575120, 10.7434180, 0, 149.82, 235.6, 5.8, 294.14, 14, 489, 30983
291000, 1, 8, 59.9575310, 10.7433250, 0, 150.53, 236.06, 5.55, 292.32, -191, 570, 30737
292000, 1, 8, 59.9575500, 10.7432330, 0, 150.88, 236.63, 6.07, 298.35, 7, 425, 30664
293000, 1, 8, 59.9575810, 10.7431370, 0, 151.06, 237.17, 6.2, 303.06, -61, 319, 30870
294000, 1, 8, 59.9576070, 10.7430450, 0, 152.12, 237.68, 6.04, 301.2, -47, 341, 30475
295000, 1, 8, 59.9576300, 10.7429510, 0, 151.94, 238.25, 6.02, 295.69, -59, 459, 30422
296000, 1, 8, 59.9576570, 10.7428550, 0, 151.76, 238.82, 6.15, 297.22, -103, 440, 30606
297000, 1, 8, 59.9576840, 10.7427600, 0, 152.2, 239.37, 5.97, 297.47, 157, 335, 30775
298000, 1, 8, 59.9577100, 10.7426630, 0, 152.47, 239.88, 6.02, 296.59, -48, 272, 30891
299000, 1, 8, 59.9577290, 10.7425650, 0, 152.47, 240.39, 6.22, 296.39, 30, 222, 30665
300000, 1, 8, 59.9577600, 10.7424650, 0, 152.91, 240.8, 6.25, 296.64, 0, 118, 30778
301000, 1, 8, 59.9577790, 10.7423630, 0, 153.09, 241.19, 6.26, 295.51, -41, 141, 30653
302000, 1, 8, 59.9578060, 10.7422610, 0, 153.09, 241.54, 6.38, 295.69, -196, 155, 30731
303000, 1, 8, 59.9578290, 10.7421580, 0, 152.65, 241.86, 6.65, 298.46, 42, 22, 30702
304000, 1, 8, 59.9578630, 10.7420550, 0, 152.65, 242.2, 6.49, 297.68, -84, 186, 30732
305000, 1, 8, 59.9578900, 10.7419510, 0, 152.91, 242.55, 6.76, 301.8, -157, 39, 30664
306000, 1, 8, 59.9579200, 10.7418480, 0, 153.17, 242.92, 6.76, 300.54, -77, 56, 30778
307000, 1, 8, 59.9579510, 10.7417450, 0, 153.09, 243.31, 6.73, 301.89, 81, 197, 30760
308000, 1, 8, 59.9579850, 10.7416470, 0, 152.91, 243.71, 6.64, 300.82, 131, 210, 30927
309000, 1, 8, 59.9580150, 10.7415450, 0, 152.65, 244.09, 6.43, 300.74, -121, 177, 30985
310000, 1, 8, 59.9580500, 10.7414440, 0, 152.73, 244.49, 6.53, 301.45, -80, 163, 31009
311000, 1, 8, 59.9580730, 10.7413450, 0, 152.73, 244.94, 5.95, 302.07, 17, 216, 30962
312000, 1, 8, 59.9580990, 10.7412500, 0, 153, 245.41, 6.35, 298.87, -36, 190, 30936
313000, 1, 8, 59.9581300, 10.7411510, 0, 153, 245.87, 6.65, 300.37, 120, -15, 31079
314000, 1, 8, 59.9581640, 10.7410460, 0, 152.82, 246.35, 7.02, 303.34, -22, -144, 31069
315000, 1, 8, 59.9581950, 10.7409430, 0, 152.47, 246.83, 6.77, 302.61, -59, -36, 30752
316000, 1, 8, 59.9582290, 10.7408400, 0, 152.91, 247.34, 6.61, 299.9, -8, 112, 30665
317000, 1, 8, 59.9582600, 10.7407400, 0, 153, 247.82, 6.77, 298.79, -222, 116, 30944
318000, 1, 8, 59.9582860, 10.7406360, 0, 153, 248.25, 6.55, 299.66, -554, 128, 30225
319000, 1, 8, 59.9583170, 10.7405360, 0, 153.17, 248.65, 6.82, 298.82, 785, 224, 29740
320000, 1, 8, 59.9583440, 10.7404360, 0, 153.35, 249.02, 6.01, 296.09, 822, 367, 29694
321000, 1, 8, 59.9583660, 10.7403330, 0, 152.82, 249.37, 5.79, 292.23, -24, 482, 29758
322000, 1, 8, 59.9583820, 10.7402360, 0, 153, 249.72, 6.2, 288.66, -320, 407, 30099
323000, 1, 8, 59.9584010, 10.7401270, 0, 153.26, 250.09, 6.65, 285.75, -338, 123, 29679
324000, 1, 8, 59.9584120, 10.7400150, 0, 153.17, 250.47, 6.33, 284.04, -225, 86, 29264
325000, 1, 8, 59.9584310, 10.7399030, 0, 153.53, 250.89, 6.6, 284.44, -87, 88, 28838
326000, 1, 8, 59.9584390, 10.7397850, 0, 153.53, 251.27, 6.63, 279.89, -324, 94, 28728
327000, 1, 8, 59.9584500, 10.7396680, 0, 153.26, 251.63, 6.6, 274.92, -348, 50, 28230
328000, 1, 8, 59.9584500, 10.7395510, 0, 153.44, 251.95, 6.6, 272.6, -187, 124, 27703
329000, 1, 8, 59.9584500, 10.7394310, 0, 153.79, 252.29, 6.6, 267.81, 82, 134, 27881
330000, 1, 8, 59.9584500, 10.7393150, 0, 154.41, 252.65, 6.63, 267.08, -37, 219, 27816
331000, 1, 8, 59.9584470, 10.7391990, 0, 154.32, 253.03, 6.52, 266.24, 0, 173, 28063
332000, 1, 8, 59.9584470, 10.7390800, 0, 154.5, 253.44, 6.31, 268.7, -70, 273, 28233
333000, 1, 8, 59.9584470, 10.7389660, 0, 154.68, 253.88, 6.47, 268.7, -14, 284, 28212
334000, 1, 8, 59.9584390, 10.7388520, 0, 154.68, 254.35, 6.34, 267.19, 80, 278, 28221
335000, 1, 8, 59.9584390, 10.7387380, 0, 154.76, 254.85, 6.45, 269.41, 39, 346, 28536
336000, 1, 8, 59.9584390, 10.7386240, 0, 155.03, 255.42, 6.37, 269.66, -130, 305, 28477
337000, 1, 8, 59.9584390, 10.7385100, 0, 155.73, 256.02, 5.98, 271.36, -132, 378, 28341
338000, 1, 8, 59.9584390, 10.7384050, 0, 156.09, 256.6, 5.99, 267.93, 3, 487, 28388
339000, 1, 8, 59.9584390, 10.7382960, 0, 155.82, 257.1, 5.76, 267.49, 65, 427, 28430
340000, 1, 8, 59.9584390, 10.7381930, 0, 155.82, 257.59, 5.84, 269.43, -15, 310, 28479
341000, 1, 8, 59.9584310, 10.7380870, 0, 156.18, 258.08, 5.91, 268.97, -11, 299, 28204
342000, 1, 8, 59.9584390, 10.7379830, 0, 156.79, 258.6, 5.78, 277.51, 81, 440, 28269
343000, 1, 8, 59.9584310, 10.7378860, 0, 157.23, 259.06, 5.24, 272.47, -131, 558, 28313
344000, 1, 8, 59.9584270, 10.7377930, 0, 157.68, 259.53, 5.59, 267.63, -121, 455, 28384
345000, 1, 8, 59.9584270, 10.7376900, 0, 157.68, 259.99, 5.7, 268.08, -266, 318, 28137
346000, 1, 8, 59.9584200, 10.7375860, 0, 157.59, 260.45, 5.59, 268.11, -19, 398, 28154
347000, 1, 8, 59.9584200, 10.7374900, 0, 158.12, 260.92, 5.85, 267.01, 56, 466, 28335
348000, 1, 8, 59.9584200, 10.7373810, 0, 158.56, 261.43, 5.91, 270.66, -50, 256, 28447
349000, 1, 8, 59.9584200, 10.7372780, 0, 158.91, 261.94, 5.9, 270.29, 412, 408, 28562
350000, 1, 8, 59.9584200, 10.7371710, 0, 159.53, 262.41, 5.87, 270.41, -171, 417, 28459
351000, 1, 8, 59.9584200, 10.7370640, 0, 159.44, 262.89, 5.97, 268.58, -39, 349, 28393
352000, 1, 8, 59.9584120, 10.7369590, 0, 159.44, 263.37, 6.09, 267.46, -124, 443, 28276
353000, 1, 8, 59.9584120, 10.7368480, 0, 160.06, 263.83, 6.17, 267.95, -36, 351, 28485
354000, 1, 8, 59.9584120, 10.7367370, 0, 160.59, 264.26, 6.58, 268.24, -130, 286, 28304
355000, 1, 8, 59.9584120, 10.7366200, 0, 160.85, 264.67, 6.6, 269.58, 34, 265, 28357
356000, 1, 8, 59.9584120, 10.7365050, 0, 161.38, 265.03, 6.09, 266.78, 108, 470, 28479
357000, 1, 8, 59.9584050, 10.7363990, 0, 161.74, 265.4, 5.72, 266.07, 102, 588, 28613
358000, 1, 8, 59.9584050, 10.7362960, 0, 161.56, 265.77, 5.84, 271.62, -66, 537, 28595
359000, 1, 8, 59.9584050, 10.7361910, 0, 162, 266.14, 6.06, 269.45, -28, 584, 28485
360000, 1, 8, 59.9584050, 10.7360830, 0, 162.89, 266.57, 6.14, 270.1, -53, 402, 28566
361000, 1, 8, 59.9584050, 10.7359710, 0, 163.24, 266.96, 6.28, 270.25, -54, 460, 28442
362000, 1, 8, 59.9584050, 10.7358610, 0, 163.59, 267.29, 6.15, 268.71, 37, 467, 28788
363000, 1, 8, 59.9584050, 10.7357530, 0, 163.86, 267.66, 6.23, 270.51, -93, 433, 28608
364000, 1, 8, 59.9584050, 10.7356440, 0, 163.68, 268.03, 5.99, 269.32, -169, 449, 28757
365000, 1, 8, 59.9584050, 10.7355360, 0, 164.03, 268.39, 5.89, 270.6, 23, 442, 28743
366000, 1, 8, 59.9584050, 10.7354320, 0, 164.65, 268.79, 6.07, 269.87, -40, 418, 28673
367000, 1, 8, 59.9584050, 10.7353230, 0, 164.48, 269.16, 5.87, 268.81, -123, 342, 28414
368000, 1, 8, 59.9584010, 10.7352200, 0, 164.74, 269.62, 5.84, 266.69, 90, 376, 28287
369000, 1, 8, 59.9584010, 10.7351150, 0, 165.01, 270.12, 5.79, 267.07, 113, 310, 28368
370000, 1, 8, 59.9584010, 10.7350130, 0, 165.18, 270.7, 5.87, 268.02, -27, 381, 28445
371000, 1, 8, 59.9583930, 10.7349050, 0, 165.27, 271.3, 5.83, 267.29, -33, 271, 28299
372000, 1, 8, 59.9583930, 10.7348000, 0, 165.62, 271.86, 6.17, 267.46, -65, 217, 28408
373000, 1, 8, 59.9583930, 10.7346920, 0, 166.33, 272.39, 5.88, 268.44, -89, 297, 28474
374000, 1, 8, 59.9583850, 10.7345830, 0, 166.51, 272.83, 6.15, 268.49, -6, 296, 28432
375000, 1, 8, 59.9583850, 10.7344710, 0, 166.6, 273.25, 6.08, 269.51, -82, 288, 28464
376000, 1, 8, 59.9583850, 10.7343610, 0, 166.6, 273.68, 6.03, 269.28, -25, 217, 28301
377000, 1, 8, 59.9583850, 10.7342550, 0, 166.6, 274.13, 5.98, 267.77, 14, 382, 28448
378000, 1, 8, 59.9583850, 10.7341450, 0, 167.13, 274.66, 6.1, 270.41, 7, 290, 28508
379000, 1, 8, 59.9583850, 10.7340380, 0, 167.21, 275.16, 6.12, 268.53, -125, 232, 28441
380000, 1, 8, 59.9583850, 10.7339280, 0, 167.57, 275.67, 6.14, 270.97, -123, 165, 28262
381000, 1, 8, 59.9583850, 10.7338180, 0, 167.83, 276.22, 6.12, 273.19, -69, 213, 28226
382000, 1, 8, 59.9583930, 10.7337100, 0, 167.92, 276.81, 6.12, 275.44, 84, 240, 28323
383000, 1, 8, 59.9583930, 10.7336010, 0, 167.74, 277.43, 6.06, 271.43, 2, 234, 28288
384000, 1, 8, 59.9583930, 10.7334910, 0, 168.19, 277.99, 6.01, 268.1, 142, 212, 28511
385000, 1, 8, 59.9583930, 10.7333830, 0, 168.36, 278.52, 6.16, 268.92, 74, 219, 28405
386000, 1, 8, 59.9583930, 10.7332750, 0, 168.63, 279.03, 6, 271.14, 396, 225, 28781
387000, 1, 8, 59.9583930, 10.7331950, 0, 168.89, 279.44, 6.02, 274.04, 1225, 216, 30103
388000, 1, 8, 59.9584010, 10.7330890, 0, 169.34, 279.97, 5.96, 285.81, 1213, 237, 31710
389000, 1, 8, 59.9584270, 10.7329930, 0, 169.34, 280.4, 5.28, 301.47, 1174, 382, 33567
390000, 1, 8, 59.9584500, 10.7329210, 0, 169.25, 280.82, 5.53, 323.36, 1741, 386, 35277
391000, 1, 8, 59.9584960, 10.7328710, 0, 169.6, 281.17, 5.79, 347.72, 357, 279, 35798
392000, 1, 8, 59.9585460, 10.7328640, 0, 169.69, 281.54, 6.16, 353.35, -44, 388, 18
393000, 1, 8, 59.9586030, 10.7328530, 0, 169.87, 281.84, 6.5, 353.03, 11, 202, 35846
394000, 1, 8, 59.9586640, 10.7328430, 0, 169.95, 282.08, 6.67, 357.25, -118, 178, 35748
395000, 1, 8, 59.9587210, 10.7328360, 0, 169.87, 282.18, 6.61, 355.51, -7, 139, 35544
396000, 1, 8, 59.9587820, 10.7328240, 0, 170.31, 282.26, 6.74, 354.72, 30, 136, 35408
397000, 1, 8, 59.9588430, 10.7328160, 0, 170.22, 282.33, 6.66, 355.82, 175, 125, 35497
398000, 1, 8, 59.9589000, 10.7328100, 0, 170.4, 282.39, 6.55, 357.32, 71, 175, 35604
399000, 1, 8, 59.9589610, 10.7328060, 0, 170.84, 282.49, 6.43, 359.06, 185, 284, 35826
400000, 1, 8, 59.9590230, 10.7328060, 0, 170.75, 282.63, 6.6, 359.12, -19, 333, 35667
401000, 1, 8, 59.9590800, 10.7328110, 0, 170.84, 282.79, 6.42, 359.12, 59, 376, 35632
402000, 1, 8, 59.9591370, 10.7328160, 0, 170.93, 282.96, 6.39, 359.12, 23, 221, 35750
403000, 1, 8, 59.9591940, 10.7328280, 0, 171.28, 283.12, 6.45, 359.12, 81, 349, 35770
404000, 1, 8, 59.9592440, 10.7328400, 0, 172.25, 283.3, 6.32, 359.12, -5, 268, 35852
405000, 1, 8, 59.9593010, 10.7328560, 0, 172.17, 283.47, 6.26, 359.12, 72, 306, 35893
406000, 1, 8, 59.9593580, 10.7328750, 0, 172.61, 283.59, 6.35, 10.13, 59, 345, 35819
407000, 1, 8, 59.9594190, 10.7328950, 0, 172.7, 283.76, 6.1, 10.48, 54, 446, 17
408000, 1, 8, 59.9594690, 10.7329190, 0, 172.61, 283.97, 6.28, 12.17, -14, 483, 35840
409000, 1, 8, 59.9595260, 10.7329410, 0, 173.14, 284.13, 6.3, 12.76, 155, 463, 35899
410000, 1, 8, 59.9595830, 10.7329680, 0, 173.49, 284.37, 6.24, 14.77, 222, 439, 96
411000, 1, 8, 59.9596370, 10.7329990, 0, 174.02, 284.66, 6.16, 17.55, 33, 406, 232
412000, 1, 8, 59.9596860, 10.7330350, 0, 174.46, 284.98, 6.09, 19.82, -135, 489, 35999
413000, 1, 8, 59.9597360, 10.7330700, 0, 175, 285.32, 6.03, 18.81, 107, 472, 16
414000, 1, 8, 59.9597890, 10.7331050, 0, 175.08, 285.67, 6.12, 19.35, -83, 443, 221
415000, 1, 8, 59.9598390, 10.7331430, 0, 175.35, 285.99, 6.05, 22.3, 23, 487, 259
416000, 1, 8, 59.9598920, 10.7331850, 0, 175.97, 286.33, 5.79, 23.57, 69, 574, 191
417000, 1, 8, 59.9599340, 10.7332310, 0, 176.15, 286.73, 5.92, 25.41, 31, 564, 262
418000, 1, 8, 59.9599880, 10.7332760, 0, 176.85, 287.11, 5.74, 26.88, -78, 545, 288
419000, 1, 8, 59.9600330, 10.7333250, 0, 177.21, 287.51, 5.94, 27.6, 91, 482, 223
420000, 1, 8, 59.9600750, 10.7333760, 0, 177.12, 287.87, 5.86, 29.1, 59, 504, 302
421000, 1, 8, 59.9601290, 10.7334250, 0, 177.65, 288.26, 5.75, 31.76, -183, 491, 35997
422000, 1, 8, 59.9601750, 10.7334790, 0, 178.18, 288.66, 5.8, 27.33, 36, 389, 35657
423000, 1, 8, 59.9602170, 10.7335230, 0, 178.71, 289.1, 5.9, 24.84, 263, 451, 35953
424000, 1, 8, 59.9602620, 10.7335710, 0, 179.15, 289.54, 5.99, 28.61, -99, 528, 35998
425000, 1, 8, 59.9603120, 10.7336210, 0, 179.6, 289.96, 5.85, 28.5, -162, 534, 35904
426000, 1, 8, 59.9603580, 10.7336710, 0, 179.77, 290.39, 5.97, 27.53, -71, 456, 35640
427000, 1, 8, 59.9604030, 10.7337190, 0, 180.04, 290.81, 5.85, 26.2, -96, 478, 35615
428000, 1, 8, 59.9604490, 10.7337670, 0, 180.66, 291.24, 5.67, 28.07, -131, 572, 35621
429000, 1, 8, 59.9604990, 10.7338120, 0, 181.19, 291.73, 5.72, 27.24, 16, 495, 35669
430000, 1, 8, 59.9605450, 10.7338600, 0, 181.54, 292.16, 5.9, 26.47, -14, 478, 35535
431000, 1, 8, 59.9605900, 10.7339060, 0, 181.99, 292.5, 5.7, 26.16, -34, 535, 35678
432000, 1, 8, 59.9606320, 10.7339560, 0, 182.25, 292.84, 5.81, 28.32, 46, 493, 35711
433000, 1, 8, 59.9606860, 10.7340060, 0, 182.52, 293.23, 5.89, 28.59, -167, 470, 35611
434000, 1, 8, 59.9607320, 10.7340560, 0, 183.31, 293.61, 5.64, 28.35, -38, 549, 35450
435000, 1, 8, 59.9607700, 10.7341000, 0, 183.58, 293.95, 4.86, 31.65, 137, 555, 35593
436000, 1, 7, 59.9608080, 10.7341500, 0, 184.11, 294.16, 5.53, 31.58, -76, 452, 35594
437000, 1, 8, 59.9608500, 10.7342000, 0, 184.64, 294.35, 5.39, 32.07, 156, 500, 35724
438000, 1, 8, 59.9608880, 10.7342510, 0, 184.91, 294.56, 5.88, 31.41, 104, 444, 23
439000, 1, 8, 59.9609340, 10.7343080, 0, 185, 294.71, 5.85, 34.02, 84, 389, 171
440000, 1, 8, 59.9609790, 10.7343680, 0, 185.53, 294.85, 5.85, 37.12, 217, 446, 578
441000, 1, 8, 59.9610180, 10.7344350, 0, 186.06, 295.04, 5.94, 40.46, -198, 537, 489
442000, 1, 8, 59.9610630, 10.7345060, 0, 186.5, 295.34, 5.9, 41.23, 240, 500, 898
443000, 1, 8, 59.9611020, 10.7345750, 0, 187.21, 295.66, 5.57, 43.95, -121, 670, 1074
444000, 1, 8, 59.9611320, 10.7346480, 0, 187.56, 296.02, 5.71, 43.36, -93, 661, 847
445000, 1, 8, 59.9611700, 10.7347180, 0, 187.74, 296.35, 5.73, 43.98, -192, 644, 642
446000, 1, 8, 59.9612050, 10.7347880, 0, 188.27, 296.68, 5.39, 41.04, 129, 590, 537
447000, 1, 7, 59.9612460, 10.7348480, 0, 188.89, 297.13, 5.54, 40.36, 257, 611, 662
448000, 1, 8, 59.9612810, 10.7349200, 0, 189.51, 297.55, 5.5, 46.49, 74, 578, 1094
449000, 1, 8, 59.9613110, 10.7349950, 0, 190.13, 297.99, 5.73, 51.61, -115, 448, 1232
450000, 1, 8, 59.9613460, 10.7350710, 0, 190.67, 298.37, 5.18, 51.96, -269, 373, 1000
451000, 1, 8, 59.9613760, 10.7351480, 0, 190.49, 298.82, 5.5, 54.18, -787, 353, 450
452000, 1, 8, 59.9614070, 10.7352210, 0, 190.93, 299.3, 5.34, 48.28, -1737, 276, 34019
453000, 1, 8, 59.9614450, 10.7352800, 0, 191.37, 299.78, 5.44, 14.35, -2228, 352, 30942
454000, 1, 8, 59.9614980, 10.7352880, 0, 191.2, 300.22, 4.79, 338.43, -1419, 469, 27574
455000, 1, 8, 59.9615290, 10.7352360, 0, 191.64, 300.7, 5.55, 313.07, 359, 456, 28244
456000, 1, 8, 59.9615670, 10.7351600, 0, 191.91, 301.19, 6.18, 315.35, -125, 80, 28813
457000, 1, 8, 59.9616050, 10.7350840, 0, 191.91, 301.53, 6.18, 316.89, 468, 117, 29312
458000, 1, 8, 59.9616510, 10.7350090, 0, 192.08, 301.86, 6.3, 319.12, 251, 220, 30488
459000, 1, 8, 59.9616970, 10.7349430, 0, 192.26, 302.19, 6.03, 326.01, -26, 196, 31077
460000, 1, 8, 59.9617420, 10.7348850, 0, 192.44, 302.52, 5.74, 329.89, -123, 261, 31426
461000, 1, 8, 59.9617840, 10.7348280, 0, 192.88, 302.89, 6.12, 326.12, -37, 278, 31400
462000, 1, 8, 59.9618230, 10.7347700, 0, 192.97, 303.34, 6.17, 325.99, -1, 282, 31513
463000, 1, 8, 59.9618760, 10.7347060, 0, 193.15, 303.82, 6, 325.79, 46, 194, 31620
464000, 1, 8, 59.9619220, 10.7346450, 0, 192.88, 304.34, 6.08, 325.36, -5, 286, 31880
465000, 1, 8, 59.9619640, 10.7345850, 0, 193.24, 304.79, 5.94, 326.41, 106, 331, 32365
466000, 1, 8, 59.9620090, 10.7345280, 0, 193.5, 305.15, 5.92, 330.62, -46, 330, 32337
467000, 1, 8, 59.9620550, 10.7344730, 0, 194.12, 305.63, 5.89, 328.49, -225, 348, 32123
468000, 1, 8, 59.9621010, 10.7344210, 0, 194.65, 306.2, 5.34, 330.88, 61, 487, 32258
469000, 1, 8, 59.9621430, 10.7343780, 0, 194.65, 306.79, 4.98, 334.72, -64, 472, 32359
470000, 1, 8, 59.9621810, 10.7343380, 0, 194.83, 307.43, 5.19, 332.34, 85, 502, 32434
471000, 1, 8, 59.9622190, 10.7342890, 0, 195.27, 308.19, 5.12, 326.01, 120, 365, 32779
472000, 1, 8, 59.9622570, 10.7342350, 0, 195.98, 308.96, 5.09, 323.14, -63, 307, 32609
473000, 1, 8, 59.9622990, 10.7341900, 0, 195.81, 309.62, 5.1, 324.88, -12, 365, 32778
474000, 1, 8, 59.9623370, 10.7341430, 0, 195.89, 310.3, 5.08, 329.21, -31, 357, 33098
475000, 1, 8, 59.9623760, 10.7340960, 0, 196.16, 311.09, 5.28, 328.85, 30, 212, 33366
476000, 1, 8, 59.9624180, 10.7340450, 0, 196.43, 311.97, 5.41, 331.53, -26, 149, 33366
477000, 1, 8, 59.9624630, 10.7340050, 0, 196.16, 312.89, 5.62, 336.9, 55, 132, 33339
478000, 1, 8, 59.9625090, 10.7339680, 0, 196.25, 313.81, 5.79, 341.69, 217, 78, 33614
479000, 1, 8, 59.9625590, 10.7339350, 0, 196.6, 314.76, 5.83, 342.54, 285, 177, 34122
480000, 1, 8, 59.9626120, 10.7339120, 0, 196.69, 315.74, 5.74, 348.43, 189, 186, 34707
481000, 1, 7, 59.9626620, 10.7338910, 0, 196.87, 316.79, 6.08, 351.55, 165, 139, 35129
482000, 1, 8, 59.9627150, 10.7338830, 0, 196.6, 317.78, 5.91, 358.36, 243, 133, 35353
483000, 1, 8, 59.9627650, 10.7338810, 0, 196.6, 318.67, 6.17, 359.97, 188, 94, 35668
484000, 1, 8, 59.9628220, 10.7338870, 0, 196.69, 319.51, 6.25, 359.97, 184, 154, 35862
485000, 1, 8, 59.9628750, 10.7338920, 0, 196.78, 320.34, 6.3, 359.97, 129, 111, 12
486000, 1, 8, 59.9629330, 10.7339010, 0, 197.4, 321.04, 6.26, 359.97, 152, 4, 253
487000, 1, 8, 59.9629900, 10.7339120, 0, 197.4, 321.75, 6.21, 359.97, 134, -2, 423
488000, 1, 9, 59.9630390, 10.7339320, 0, 196.69, 322.45, 6.14, 10.61, 27, 55, 560
489000, 1, 8, 59.9630970, 10.7339520, 0, 196.69, 323.15, 6.08, 11.57, -1, 97, 585
490000, 1, 8, 59.9631500, 10.7339760, 0, 197.14, 323.91, 5.98, 13.94, 3, 165, 602
491000, 1, 8, 59.9632000, 10.7340010, 0, 197.4, 324.83, 5.85, 14.45, 166, -227, 618
492000, 1, 8, 59.9632530, 10.7340380, 0, 197.58, 325.81, 5.48, 17.99, 133, 66, 677
493000, 1, 8, 59.9632950, 10.7340760, 0, 197.67, 326.63, 6.03, 21.71, 11, 119, 662
494000, 1, 8, 59.9633480, 10.7341160, 0, 197.49, 327.28, 6.37, 19.57, -44, -27, 710
495000, 1, 8, 59.9634060, 10.7341530, 0, 197.14, 327.9, 6.08, 19.45, -88, 125, 652
496000, 1, 8, 59.9634550, 10.7341950, 0, 197.58, 328.55, 5.85, 25.43, -27, 232, 655
497000, 1, 8, 59.9635010, 10.7342390, 0, 197.93, 329.23, 6.17, 21.77, -254, 120, 410
498000, 1, 8, 59.9635510, 10.7342730, 0, 198.29, 329.91, 5.71, 14.45, -182, 212, 77
499000, 1, 8, 59.9636080, 10.7342930, 0, 197.85, 330.65, 6.27, 8.71, -51, 147, 35972
500000, 1, 7, 59.9636690, 10.7343100, 0, 198.38, 331.42, 6.34, 8.06, -86, 155, 35982
501000, 1, 7, 59.9637070, 10.7343240, 0, 197.76, 331.87, 6.54, 11.3, -158, 59, 35786
502000, 1, 7, 59.9637640, 10.7343450, 0, 198.11, 332.14, 6.77, 11.71, -117, -41, 35733
503000, 1, 8, 59.9638210, 10.7343690, 0, 198.02, 332.19, 6.47, 9.39, -138, 86, 35568
504000, 1, 7, 59.9638790, 10.7343850, 0, 198.11, 332.22, 6.69, 6.72, -104, 120, 35349
505000, 1, 7, 59.9639430, 10.7343990, 0, 198.47, 332.26, 6.62, 4.18, 885, 262, 35905
506000, 1, 7, 59.9640010, 10.7344110, 0, 198.38, 332.42, 6.7, 7.36, 451, 47, 1487
507000, 1, 7, 59.9640580, 10.7344450, 0, 198.2, 332.69, 6.46, 10.64, -1061, 215, 693
508000, 1, 7, 59.9641080, 10.7344810, 0, 198.29, 332.99, 6.16, 11.38, -726, 116, 34482
509000, 1, 7, 59.9641650, 10.7344910, 0, 198.73, 333.29, 6.26, 357.68, 127, 51, 33966
510000, 1, 7, 59.9642180, 10.7344850, 0, 198.38, 333.58, 5.78, 356.78, 459, -240, 34866
511000, 1, 8, 59.9642680, 10.7344870, 0, 198.38, 333.66, 4.7, 358.15, 1614, 272, 1496
512000, 1, 9, 59.9643060, 10.7345060, 0, 198.64, 333.76, 3.89, 20.26, 1513, 887, 6010
513000, 1, 7, 59.9643330, 10.7345410, 0, 198.56, 334.01, 3.12, 29.75, -271, 773, 6266
514000, 1, 7, 59.9643400, 10.7345910, 0, 199.26, 334.1, 3.15, 44.03, -224, 703, 5473
515000, 1, 6, 59.9643440, 10.7346170, 0, 199.44, 334.47, 1.93, 53.23, -48, 937, 4700
516000, 1, 5, 59.9643440, 10.7346320, 0, 199.89, 335.08, 1.18, 59.89, -74, 733, 4660
517000, 1, 5, 59.9643400, 10.7346320, 0, 199.97, 335.63, 0.42, 61, 370, -63, 4506
518000, 1, 6, 59.9643330, 10.7346450, 0, 199.71, 336.01, 0.89, 61, 770, -22, 6778
519000, 1, 6, 59.9643210, 10.7346450, 0, 199.44, 336.42, 1.25, 161.04, 552, 531, 10437
520000, 1, 6, 59.9643210, 10.7346560, 0, 199.62, 336.59, 1.73, 164.58, 228, 969, 14818
521000, 1, 6, 59.9643020, 10.7346750, 0, 199.97, 336.61, 1.79, 180.32, -239, 782, 16681
522000, 1, 6, 59.9642750, 10.7346850, 0, 200.6, 336.91, 2.37, 187.06, -101, 568, 17925
523000, 1, 7, 59.9642490, 10.7346970, 0, 201.13, 337.02, 2.85, 181.81, -223, 441, 18366
524000, 1, 7, 59.9642110, 10.7347210, 0, 201.48, 337.18, 3.28, 175.76, -51, 384, 19041
525000, 1, 7, 59.9641720, 10.7347130, 0, 201.84, 337.05, 3.22, 174.8, -44, 473, 19086
526000, 1, 7, 59.9641340, 10.7347060, 0, 201.93, 336.61, 3.58, 170.64, -23, 376, 19575
527000, 1, 7, 59.9640850, 10.7346920, 0, 202.46, 335.51, 3.95, 166.66, -134, 436, 20090
528000, 1, 7, 59.9640270, 10.7346750, 0, 203.17, 333.95, 4.95, 173.93, 19, 192, 20415
529000, 1, 8, 59.9639820, 10.7346850, 0, 203.52, 334.43, 5.14, 174.35, -163, 212, 20698
530000, 1, 8, 59.9639360, 10.7346950, 0, 203.97, 334.88, 5.03, 172.94, -125, 282, 20709
531000, 1, 8, 59.9638900, 10.7347080, 0, 204.5, 335.31, 4.44, 169.86, -145, 508, 20775
532000, 1, 8, 59.9638520, 10.7347160, 0, 204.23, 335.76, 3.95, 181.12, -59, 688, 20812
533000, 1, 8, 59.9638060, 10.7347280, 0, 204.77, 335.62, 5.05, 177.38, -564, 385, 20692
534000, 1, 9, 59.9637490, 10.7347510, 0, 205.3, 335.53, 5.45, 173.41, -539, 24, 19923
535000, 1, 9, 59.9637070, 10.7347830, 0, 205.56, 335.95, 5.31, 152.16, -720, -95, 18905
536000, 1, 9, 59.9636610, 10.7348330, 0, 205.82, 336.33, 5.62, 143.59, -400, 13, 17689
537000, 1, 9, 59.9636230, 10.7348980, 0, 205.91, 336.63, 5.6, 131.31, -174, 264, 16805
538000, 1, 9, 59.9635890, 10.7349760, 0, 205.82, 336.9, 5.58, 127.87, -23, 411, 15905
539000, 1, 9, 59.9635580, 10.7350600, 0, 206.18, 337.24, 5.81, 121.66, 39, 459, 15818
540000, 1, 9, 59.9635310, 10.7351450, 0, 206.71, 337.68, 5.65, 122.33, -168, 538, 15496
541000, 1, 9, 59.9635090, 10.7352280, 0, 207.33, 338.2, 5.37, 120.36, -118, 616, 15298
542000, 1, 9, 59.9634820, 10.7353120, 0, 208.04, 338.73, 5.2, 118.85, -243, 567, 14450
543000, 1, 9, 59.9634630, 10.7353930, 0, 208.22, 339.29, 5.26, 120.36, -511, 605, 13059
544000, 1, 10, 59.9634360, 10.7354730, 0, 208.22, 339.91, 5.04, 121.14, -382, 619, 11712
545000, 1, 9, 59.9634090, 10.7355510, 0, 208.75, 340.48, 4.68, 118.45, -434, 650, 10224
546000, 1, 9, 59.9633900, 10.7356250, 0, 209.46, 341, 4.77, 115.19, -44, 646, 9026
547000, 1, 10, 59.9633870, 10.7357150, 0, 210.44, 341.49, 5.3, 110.9, -28, 493, 8040
548000, 1, 10, 59.9633790, 10.7358060, 0, 210.88, 341.96, 4.94, 106.31, 477, 557, 7817
549000, 1, 9, 59.9633710, 10.7358960, 0, 211.24, 342.36, 5.45, 104.38, 1135, 199, 8928
550000, 1, 9, 59.9633520, 10.7359950, 0, 210.79, 342.63, 5.9, 106.94, 1294, 91, 11155
551000, 1, 9, 59.9633220, 10.7360870, 0, 210.88, 342.9, 5.93, 129.49, 1237, 292, 14165
552000, 1, 9, 59.9632840, 10.7361510, 0, 210.7, 343.13, 5.67, 155.31, -261, 325, 15177
553000, 1, 9, 59.9632300, 10.7361860, 0, 210.53, 343.28, 6.36, 165.23, -173, 84, 15354
554000, 1, 9, 59.9631730, 10.7362160, 0, 210.7, 343.48, 6.29, 166.78, -251, -53, 15584
555000, 1, 9, 59.9631230, 10.7362400, 0, 210.79, 343.67, 5.86, 168.53, -98, 137, 15645
556000, 1, 9, 59.9630660, 10.7362600, 0, 210.62, 343.87, 6.39, 165.24, 77, -148, 15609
557000, 1, 7, 59.9630090, 10.7362860, 0, 210.26, 343.99, 6.56, 166.98, 259, -432, 15755
558000, 1, 7, 59.9629550, 10.7363130, 0, 209.64, 344.07, 5.59, 168.21, 1353, -466, 17343
559000, 1, 8, 59.9629140, 10.7363160, 0, 209.37, 344.12, 4.63, 192.12, 1940, -366, 20187
560000, 1, 7, 59.9628560, 10.7362800, 0, 209.46, 338.35, 4.25, 221.1, 1439, -24, 24176
561000, 1, 8, 59.9628220, 10.7362160, 0, 209.11, 335.41, 4.71, 251.24, 321, -269, 26501
562000, 1, 9, 59.9628110, 10.7361280, 0, 208.4, 335.41, 5.3, 264.41, 484, -692, 27183
563000, 1, 9, 59.9628110, 10.7360360, 0, 207.42, 335.29, 4.56, 271.9, 1075, -862, 29697
564000, 1, 8, 59.9628140, 10.7359630, 0, 206.71, 335.18, 3.35, 285.57, 694, -584, 31571
565000, 1, 8, 59.9628300, 10.7359100, 0, 206.44, 335.06, 3.98, 312.27, 218, 168, 33642
566000, 1, 8, 59.9630090, 10.7359650, 0, 206.44, 335.02, 5.14, 326.74, -343, -69, 33096
567000, 1, 8, 59.9630930, 10.7359250, 0, 206.35, 334.36, 5.04, 320.94, -819, -234, 32484
568000, 1, 8, 59.9631230, 10.7358630, 0, 206.09, 334.27, 5.5, 315.39, -472, -574, 30889
569000, 1, 8, 59.9631540, 10.7357900, 0, 205.82, 333.85, 5.07, 311.5, 610, 189, 30830
570000, 1, 7, 59.9631730, 10.7357190, 0, 206.09, 333.49, 4.11, 307.97, 525, -32, 32507
571000, 1, 8, 59.9631920, 10.7356600, 0, 206.26, 333.22, 3.25, 303.78, 599, 383, 34025
572000, 1, 9, 59.9632000, 10.7356230, 0, 206.26, 332.26, 2.09, 308.71, 352, 566, 35748
573000, 1, 9, 59.9632070, 10.7356200, 0, 206.26, 330.12, 1.4, 348.92, 87, 410, 577
574000, 1, 9, 59.9632000, 10.7356390, 0, 206.18, 326.74, 1.29, 1.17, -200, 388, 1005
575000, 1, 10, 59.9632070, 10.7357100, 0, 205.73, 320.97, 2.75, 3.03, -251, -51, 603
576000, 1, 10, 59.9632110, 10.7357840, 0, 205.48, 314.07, 2.51, 3.03, 16, -496, 272
577000, 1, 10, 59.9632380, 10.7358210, 0, 205.39, 309.57, 1.45, 5.48, -280, -785, 143
578000, 1, 10, 59.9632450, 10.7358710, 0, 205.48, 302.92, 0.01, 5.22, -515, -67, 82
579000, 1, 10, 59.9632530, 10.7359000, 0, 205.64, 298.25, 0, 5.25, -100, 150, 27
580000, 1, 10, 59.9632530, 10.7359430, 0, 205.56, 293.63, 0, 5.25, -268, 99, 0
581000, 1, 10, 59.9632450, 10.7359680, 0, 205.3, 291.46, 0, 5.25, -86, 14, 35984
582000, 1, 10, 59.9632450, 10.7359700, 0, 205.21, 291.34, 0, 5.25, 114, -5, 35976
583000, 1, 10, 59.9632450, 10.7359710, 0, 205.3, 291.25, 0, 5.25, 26, -4, 35983
584000, 1, 10, 59.9632450, 10.7359700, 0, 205.39, 290.96, 0, 5.25, 23, -19, 35975
585000, 1, 10, 59.9632530, 10.7359700, 0, 205.48, 290.84, 0, 5.25, -338, 5, 35977
586000, 1, 10, 59.9632530, 10.7359710, 0, 205.64, 290.71, 0.02, 5.25, -944, -24, 35907
587000, 1, 10, 59.9632530, 10.7359750, 0, 205.48, 290.62, 0.02, 5.25, 1335, -2, 35817
588000, 1, 10, 59.9632530, 10.7359810, 0, 205.12, 290.49, 0.25, 5.25, 2263, -17, 35789
589000, 1, 10, 59.9632530, 10.7359800, 0, 205.39, 290.37, 0.08, 5.25, -1058, -4, 35984
590000, 1, 10, 59.9632530, 10.7359800, 0, 205.48, 290.25, 0.09, 5.25, -582, 36, 35901
591000, 1, 10, 59.9632530, 10.7359770, 0, 205.56, 290.14, 0.07, 5.25, -1072, -5, 35875
592000, 1, 10, 59.9632530, 10.7359760, 0, 205.48, 290.08, 0.08, 306.88, -1049, 0, 35798
593000, 1, 10, 59.9632530, 10.7359760, 0, 205.39, 290.04, 0.05, 306.88, -1044, -3, 35741
594000, 1, 10, 59.9632530, 10.7359760, 0, 205.12, 290, 0.03, 306.88, -1044, -11, 35697
595000, 1, 10, 59.9632530, 10.7359750, 0, 205.21, 289.92, 0.02, 306.88, -1045, -20, 35658
596000, 1, 10, 59.9632530, 10.7359750, 0, 205.3, 289.87, 0.01, 306.88, -1046, -7, 35619
597000, 1, 10, 59.9632530, 10.7359750, 0, 205.39, 289.81, 0.02, 306.88, -1045, -25, 35595
598000, 1, 10, 59.9632530, 10.7359750, 0, 205.39, 289.72, 0.06, 306.88, -1047, -32, 35575
599000, 1, 10, 59.9632530, 10.7359750, 0, 205.39, 289.7, 0.03, 306.88, -1045, -30, 35554
600000, 1, 10, 59.9632530, 10.7359750, 0, 205.21, 289.68, 0.02, 306.88, -1048, -21, 35538
