time, fix, sats, latitute, longitude, sonar, alt, gps_alt, speed, CRS, roll, pitch, yaw
0, 1, 6, 59.9631920, 10.7360070, 0, 207.95, 204.53, 0.02, 111.97, -953, 51, 17243
100, 1, 6, 59.9631920, 10.7360070, 0, 207.95, 204.53, 0.02, 111.97, -960, 50, 17242
200, 1, 7, 59.9631920, 10.7360070, 0, 208.04, 204.53, 0.04, 111.97, -965, 48, 17238
300, 1, 7, 59.9631920, 10.7360070, 0, 208.04, 204.53, 0.04, 111.97, -961, 47, 17234
400, 1, 7, 59.9631920, 10.7360070, 0, 208.04, 204.53, 0.03, 111.97, -955, 48, 17232
500, 1, 7, 59.9631920, 10.7360070, 0, 208.04, 204.53, 0.03, 111.97, -959, 48, 17231
600, 1, 7, 59.9631920, 10.7360070, 0, 208.04, 204.53, 0.03, 111.97, -965, 49, 17228
700, 1, 7, 59.9631920, 10.7360070, 0, 208.04, 204.53, 0.02, 111.97, -963, 49, 17224
800, 1, 7, 59.9631920, 10.7360070, 0, 208.04, 204.53, 0.02, 111.97, -957, 50, 17222
900, 1, 7, 59.9631920, 10.7360070, 0, 208.13, 204.53, 0.01, 111.97, -958, 52, 17221
1000, 1, 7, 59.9631920, 10.7360070, 0, 208.13, 204.53, 0.01, 111.97, -965, 53, 17219
1100, 1, 7, 59.9631920, 10.7360070, 0, 208.13, 204.53, 0.01, 111.97, -964, 54, 17216
1200, 1, 7, 59.9631920, 10.7360070, 0, 208.13, 204.53, 0.01, 111.97, -965, 55, 17217
1300, 1, 7, 59.9631920, 10.7360070, 0, 208.13, 204.53, 0.01, 111.97, -966, 55, 17214
1400, 1, 7, 59.9631920, 10.7360070, 0, 208.13, 204.53, 0, 111.97, -961, 56, 17211
1500, 1, 7, 59.9631920, 10.7360070, 0, 208.13, 204.53, 0, 111.97, -959, 57, 17213
1600, 1, 7, 59.9631920, 10.7360070, 0, 208.13, 204.53, 0, 111.97, -967, 56, 17213
1700, 1, 7, 59.9631920, 10.7360070, 0, 208.22, 204.52, 0.04, 111.97, -968, 54, 17210
1800, 1, 7, 59.9631920, 10.7360070, 0, 208.22, 204.52, 0.04, 111.97, -960, 50, 17210
1900, 1, 7, 59.9631920, 10.7360070, 0, 208.22, 204.52, 0.06, 111.97, -958, 48, 17212
2000, 1, 7, 59.9631920, 10.7360070, 0, 208.22, 204.52, 0.06, 111.97, -968, 44, 17211
2100, 1, 7, 59.9631920, 10.7360070, 0, 208.13, 204.52, 0.06, 111.97, -966, 44, 17208
2200, 1, 7, 59.9631920, 10.7360070, 0, 208.13, 204.52, 0.02, 111.97, -960, 46, 17207
2300, 1, 7, 59.9631920, 10.7360070, 0, 208.22, 204.52, 0.02, 111.97, -959, 47, 17206
2400, 1, 7, 59.9631920, 10.7360070, 0, 208.22, 204.51, 0.01, 111.97, -965, 46, 17204
2500, 1, 7, 59.9631920, 10.7360070, 0, 208.22, 204.51, 0.01, 111.97, -965, 49, 17203
2600, 1, 7, 59.9631920, 10.7360070, 0, 208.22, 204.51, 0.01, 111.97, -961, 54, 17201
2700, 1, 7, 59.9631920, 10.7360070, 0, 208.22, 204.51, 0.02, 111.97, -961, 53, 17200
2800, 1, 7, 59.9631920, 10.7360070, 0, 208.22, 204.51, 0.02, 111.97, -964, 51, 17197
2900, 1, 7, 59.9631920, 10.7360070, 0, 208.31, 204.5, 0.04, 111.97, -963, 46, 17194
3000, 1, 7, 59.9631920, 10.7360070, 0, 208.31, 204.5, 0.04, 111.97, -958, 50, 17194
3100, 1, 7, 59.9631920, 10.7360070, 0, 208.31, 204.5, 0.04, 111.97, -960, 50, 17192
3200, 1, 7, 59.9631920, 10.7360070, 0, 208.31, 204.5, 0.01, 111.97, -964, 49, 17188
3300, 1, 7, 59.9631920, 10.7360070, 0, 208.31, 204.5, 0.01, 111.97, -955, 45, 17185
3400, 1, 7, 59.9631920, 10.7360070, 0, 208.31, 204.5, 0.02, 111.97, -953, 44, 17187
3500, 1, 7, 59.9631920, 10.7360070, 0, 208.31, 204.5, 0.02, 111.97, -956, 47, 17189
3600, 1, 7, 59.9631920, 10.7360070, 0, 208.22, 204.5, 0.02, 111.97, -961, 50, 17189
3700, 1, 7, 59.9631920, 10.7360070, 0, 208.22, 204.5, 0.02, 111.97, -962, 50, 17187
3800, 1, 7, 59.9631920, 10.7360070, 0, 208.22, 204.5, 0.02, 111.97, -957, 47, 17188
3900, 1, 7, 59.9631920, 10.7360070, 0, 208.22, 204.5, 0.05, 111.97, -956, 39, 17186
4000, 1, 7, 59.9631920, 10.7360070, 0, 208.13, 204.5, 0.05, 111.97, -954, 34, 17188
4100, 1, 7, 59.9631920, 10.7360070, 0, 208.13, 204.5, 0.05, 111.97, -954, 35, 17189
4200, 1, 7, 59.9631920, 10.7360070, 0, 208.04, 204.5, 0.03, 111.97, -956, 38, 17188
4300, 1, 7, 59.9631920, 10.7360070, 0, 208.04, 204.5, 0.03, 111.97, -958, 44, 17190
4400, 1, 7, 59.9631920, 10.7360070, 0, 208.04, 204.49, 0.01, 111.97, -958, 49, 17188
4500, 1, 7, 59.9631920, 10.7360070, 0, 208.04, 204.49, 0.01, 111.97, -961, 49, 17186
4600, 1, 7, 59.9631920, 10.7360070, 0, 208.04, 204.49, 0.01, 111.97, -957, 47, 17185
4700, 1, 7, 59.9631920, 10.7360070, 0, 208.04, 204.49, 0.05, 111.97, -957, 46, 17185
4800, 1, 7, 59.9631920, 10.7360070, 0, 208.04, 204.49, 0.05, 111.97, -961, 47, 17185
4900, 1, 7, 59.9631920, 10.7360070, 0, 207.95, 204.49, 0.03, 111.97, -962, 49, 17183
5000, 1, 7, 59.9631920, 10.7360070, 0, 207.95, 204.49, 0.03, 111.97, -960, 49, 17183
5100, 1, 7, 59.9631920, 10.7360070, 0, 207.95, 204.49, 0.03, 111.97, -959, 48, 17181
5200, 1, 7, 59.9631920, 10.7360070, 0, 207.95, 204.49, 0, 111.97, -958, 53, 17182
5300, 1, 7, 59.9631920, 10.7360070, 0, 207.95, 204.49, 0, 111.97, -957, 59, 17180
5400, 1, 7, 59.9631920, 10.7360070, 0, 207.95, 204.5, 0, 111.97, -963, 59, 17177
5500, 1, 7, 59.9631920, 10.7360070, 0, 207.95, 204.5, 0, 111.97, -961, 60, 17179
5600, 1, 7, 59.9631920, 10.7360070, 0, 208.04, 204.5, 0, 111.97, -957, 59, 17178
5700, 1, 7, 59.9631920, 10.7360070, 0, 208.04, 204.5, 0.04, 111.97, -963, 56, 17177
5800, 1, 7, 59.9631920, 10.7360070, 0, 208.04, 204.5, 0.04, 111.97, -967, 54, 17177
5900, 1, 7, 59.9631920, 10.7360070, 0, 208.04, 204.49, 0.03, 111.97, -965, 53, 17175
6000, 1, 7, 59.9631920, 10.7360070, 0, 208.04, 204.49, 0.03, 111.97, -961, 52, 17173
6100, 1, 7, 59.9631920, 10.7360070, 0, 208.04, 204.49, 0.03, 111.97, -959, 53, 17174
6200, 1, 7, 59.9631920, 10.7360070, 0, 208.04, 204.49, 0.01, 111.97, -964, 55, 17173
6300, 1, 7, 59.9631920, 10.7360070, 0, 208.04, 204.49, 0.01, 111.97, -966, 53, 17170
6400, 1, 7, 59.9631920, 10.7360070, 0, 208.04, 204.49, 0.05, 111.97, -961, 49, 17170
6500, 1, 7, 59.9631920, 10.7360070, 0, 208.04, 204.49, 0.05, 111.97, -959, 47, 17171
6600, 1, 7, 59.9631920, 10.7360070, 0, 208.13, 204.49, 0.05, 111.97, -964, 45, 17170
6700, 1, 7, 59.9631920, 10.7360070, 0, 208.13, 204.49, 0.04, 111.97, -966, 44, 17169
6800, 1, 7, 59.9631920, 10.7360070, 0, 208.13, 204.49, 0.04, 111.97, -960, 43, 17169
6900, 1, 7, 59.9631920, 10.7360070, 0, 208.13, 204.49, 0.04, 111.97, -967, 40, 17173
7000, 1, 7, 59.9631920, 10.7360070, 0, 208.22, 204.49, 0.04, 111.97, -963, 44, 17176
7100, 1, 7, 59.9631920, 10.7360070, 0, 208.22, 204.49, 0.04, 111.97, -947, 46, 17174
7200, 1, 7, 59.9631920, 10.7360070, 0, 208.22, 204.5, 0.01, 111.97, -916, 51, 17193
7300, 1, 7, 59.9631920, 10.7360070, 0, 208.22, 204.5, 0.01, 111.97, -918, 45, 17217
7400, 1, 7, 59.9631920, 10.7360070, 0, 208.13, 204.5, 0.04, 111.97, -901, 29, 17229
7500, 1, 7, 59.9631920, 10.7360070, 0, 208.13, 204.5, 0.04, 111.97, -788, 18, 17230
7600, 1, 7, 59.9631920, 10.7360070, 0, 208.22, 204.5, 0.04, 111.97, -595, 19, 17240
7700, 1, 7, 59.9631920, 10.7360070, 0, 208.22, 204.5, 0.1, 111.97, -399, 25, 17246
7800, 1, 7, 59.9631920, 10.7360070, 0, 208.22, 204.5, 0.1, 111.97, -287, 39, 17279
7900, 1, 7, 59.9631920, 10.7360070, 0, 208.22, 204.5, 0.1, 111.97, -238, 52, 17297
8000, 1, 7, 59.9631920, 10.7360070, 0, 208.22, 204.5, 0.17, 111.97, -219, 57, 17307
8100, 1, 7, 59.9631920, 10.7360070, 0, 208.31, 204.5, 0.17, 111.97, -208, 59, 17297
8200, 1, 7, 59.9631920, 10.7360050, 0, 208.31, 204.49, 0.14, 111.97, -184, 54, 17284
8300, 1, 7, 59.9631920, 10.7360050, 0, 208.31, 204.49, 0.14, 111.97, -159, 46, 17279
8400, 1, 7, 59.9631920, 10.7360050, 0, 208.22, 204.49, 0.14, 111.97, -152, 42, 17272
8500, 1, 7, 59.9631920, 10.7360050, 0, 208.22, 204.49, 0.14, 111.97, -145, 37, 17266
8600, 1, 7, 59.9631920, 10.7360050, 0, 208.22, 204.49, 0.14, 111.97, -149, 34, 17256
8700, 1, 7, 59.9631920, 10.7360050, 0, 208.22, 204.49, 0.08, 111.97, -155, 36, 17252
8800, 1, 7, 59.9631920, 10.7360050, 0, 208.22, 204.49, 0.08, 111.97, -165, 40, 17241
8900, 1, 7, 59.9631920, 10.7360050, 0, 208.22, 204.49, 0.08, 111.97, -174, 50, 17234
9000, 1, 7, 59.9631920, 10.7360030, 0, 208.22, 204.49, 0.03, 111.97, -178, 61, 17226
9100, 1, 7, 59.9631920, 10.7360030, 0, 208.22, 204.49, 0.03, 111.97, -179, 69, 17225
9200, 1, 7, 59.9631920, 10.7360030, 0, 208.22, 204.49, 0.05, 111.97, -175, 69, 17220
9300, 1, 7, 59.9631920, 10.7360030, 0, 208.31, 204.49, 0.05, 111.97, -174, 66, 17217
9400, 1, 7, 59.9631920, 10.7360030, 0, 208.31, 204.49, 0.05, 111.97, -182, 61, 17214
9500, 1, 7, 59.9631920, 10.7360030, 0, 208.31, 204.48, 0.1, 111.97, -193, 56, 17210
9600, 1, 7, 59.9631920, 10.7360030, 0, 208.31, 204.48, 0.1, 111.97, -203, 54, 17202
9700, 1, 7, 59.9631920, 10.7360030, 0, 208.31, 204.48, 0.11, 111.97, -208, 57, 17196
9800, 1, 7, 59.9631920, 10.7360030, 0, 208.31, 204.48, 0.11, 111.97, -216, 58, 17192
9900, 1, 7, 59.9631920, 10.7360030, 0, 208.31, 204.48, 0.11, 111.97, -231, 57, 17187
10000, 1, 7, 59.9631920, 10.7360030, 0, 208.22, 204.47, 0.09, 111.97, -238, 54, 17184
10100, 1, 7, 59.9631920, 10.7360030, 0, 208.22, 204.47, 0.09, 111.97, -240, 54, 17179
10200, 1, 7, 59.9631920, 10.7360050, 0, 208.22, 204.46, 0.05, 111.97, -233, 58, 17176
10300, 1, 7, 59.9631920, 10.7360050, 0, 208.13, 204.46, 0.05, 111.97, -233, 65, 17175
10400, 1, 7, 59.9631920, 10.7360050, 0, 208.04, 204.46, 0.05, 111.97, -239, 69, 17181
10500, 1, 7, 59.9631920, 10.7360050, 0, 208.04, 204.46, 0.04, 111.97, -243, 69, 17200
10600, 1, 7, 59.9631920, 10.7360050, 0, 207.95, 204.46, 0.04, 111.97, -145, 72, 17200
10700, 1, 7, 59.9631920, 10.7360050, 0, 207.95, 204.46, 0, 111.97, 103, 79, 17220
10800, 1, 7, 59.9631920, 10.7360050, 0, 207.95, 204.46, 0, 111.97, 492, 85, 17239
10900, 1, 7, 59.9631920, 10.7360050, 0, 207.95, 204.46, 0, 111.97, 1019, 79, 17265
11000, 1, 7, 59.9631920, 10.7360050, 0, 207.95, 204.46, 0.2, 111.97, 1705, 64, 17276
11100, 1, 7, 59.9631920, 10.7360050, 0, 207.95, 204.46, 0.2, 111.97, 2392, 53, 17280
11200, 1, 7, 59.9631920, 10.7360030, 0, 207.95, 204.45, 0.49, 226.75, 2872, 35, 17278
11300, 1, 7, 59.9631920, 10.7360030, 0, 207.95, 204.45, 0.49, 226.75, 3112, 13, 17283
11400, 1, 7, 59.9631920, 10.7360030, 0, 207.95, 204.45, 0.49, 226.75, 3146, -14, 17258
11500, 1, 7, 59.9631880, 10.7360050, 0, 207.95, 204.45, 1.33, 221.56, 2994, -76, 17230
11600, 1, 7, 59.9631880, 10.7360050, 0, 207.95, 204.45, 1.33, 221.56, 2678, -106, 17176
11700, 1, 7, 59.9631880, 10.7360050, 0, 207.95, 204.44, 0.59, 213.95, 2186, -83, 17128
11800, 1, 7, 59.9631880, 10.7360050, 0, 208.04, 204.44, 0.59, 213.95, 1602, -50, 17071
11900, 1, 7, 59.9631880, 10.7360050, 0, 208.13, 204.44, 0.59, 213.95, 1018, -15, 17033
12000, 1, 7, 59.9631880, 10.7360070, 0, 208.13, 204.42, 0.38, 92.42, 452, 25, 17015
12100, 1, 7, 59.9631880, 10.7360070, 0, 208.22, 204.42, 0.38, 92.42, 20, 42, 16997
12200, 1, 7, 59.9631880, 10.7360080, 0, 208.13, 204.43, 0.54, 94.24, -251, 40, 16978
12300, 1, 7, 59.9631880, 10.7360080, 0, 208.13, 204.43, 0.54, 94.24, -368, 37, 16969
12400, 1, 7, 59.9631880, 10.7360080, 0, 208.13, 204.43, 0.54, 94.24, -336, 37, 16967
12500, 1, 7, 59.9631880, 10.7360100, 0, 208.04, 204.43, 0.62, 93.04, -250, 40, 16983
12600, 1, 7, 59.9631880, 10.7360100, 0, 208.13, 204.43, 0.62, 93.04, -166, 40, 16996
12700, 1, 7, 59.9631880, 10.7360120, 0, 208.13, 204.43, 0.7, 90.96, -123, 33, 17006
12800, 1, 7, 59.9631880, 10.7360120, 0, 208.13, 204.43, 0.7, 90.96, -87, 22, 17014
12900, 1, 7, 59.9631880, 10.7360120, 0, 208.13, 204.43, 0.7, 90.96, -65, 9, 17024
13000, 1, 7, 59.9631880, 10.7360160, 0, 208.13, 204.43, 0.73, 91.09, -48, 0, 17025
13100, 1, 7, 59.9631880, 10.7360160, 0, 208.13, 204.43, 0.73, 91.09, -5, -6, 17033
13200, 1, 7, 59.9631880, 10.7360200, 0, 208.13, 204.43, 0.88, 89.66, 16, -14, 17036
13300, 1, 7, 59.9631880, 10.7360200, 0, 208.13, 204.43, 0.88, 89.66, 17, -24, 17038
13400, 1, 7, 59.9631880, 10.7360200, 0, 208.13, 204.43, 0.88, 89.66, 20, -39, 17044
13500, 1, 7, 59.9631880, 10.7360230, 0, 208.13, 204.42, 0.9, 88.94, 26, -50, 17034
13600, 1, 7, 59.9631880, 10.7360230, 0, 208.13, 204.42, 0.9, 88.94, 60, -48, 17041
13700, 1, 7, 59.9631880, 10.7360280, 0, 208.13, 204.42, 0.8, 89.2, 76, -33, 17033
13800, 1, 7, 59.9631880, 10.7360280, 0, 208.22, 204.42, 0.8, 89.2, 58, -18, 17027
13900, 1, 7, 59.9631880, 10.7360280, 0, 208.22, 204.42, 0.8, 89.2, 23, -3, 17020
14000, 1, 7, 59.9631880, 10.7360320, 0, 208.22, 204.41, 0.61, 96.53, -35, 15, 17025
14100, 1, 7, 59.9631880, 10.7360320, 0, 208.22, 204.41, 0.61, 96.53, -94, 34, 17020
14200, 1, 7, 59.9631880, 10.7360350, 0, 208.31, 204.41, 0.46, 102.84, -160, 55, 17008
14300, 1, 7, 59.9631880, 10.7360350, 0, 208.31, 204.41, 0.46, 102.84, -171, 74, 17005
14400, 1, 7, 59.9631880, 10.7360350, 0, 208.31, 204.41, 0.46, 102.84, -204, 92, 17001
14500, 1, 7, 59.9631880, 10.7360360, 0, 208.31, 204.4, 0.43, 106.81, -205, 115, 17004
14600, 1, 7, 59.9631880, 10.7360360, 0, 208.31, 204.4, 0.43, 106.81, -240, 139, 17003
14700, 1, 7, 59.9631880, 10.7360380, 0, 208.31, 204.4, 0.31, 133.35, -236, 157, 17003
14800, 1, 7, 59.9631880, 10.7360380, 0, 208.31, 204.4, 0.31, 133.35, -174, 162, 16984
14900, 1, 7, 59.9631880, 10.7360380, 0, 208.31, 204.4, 0.31, 133.35, -95, 172, 17004
15000, 1, 7, 59.9631880, 10.7360400, 0, 208.31, 204.4, 0.29, 133.35, -13, 177, 16994
15100, 1, 7, 59.9631880, 10.7360400, 0, 208.31, 204.4, 0.29, 133.35, 67, 179, 17006
15200, 1, 7, 59.9631880, 10.7360400, 0, 208.22, 204.4, 0.3, 159.74, 76, 180, 16996
15300, 1, 7, 59.9631880, 10.7360400, 0, 208.22, 204.4, 0.3, 159.74, 57, 178, 16990
15400, 1, 7, 59.9631880, 10.7360400, 0, 208.31, 204.4, 0.3, 159.74, 46, 179, 16987
15500, 1, 7, 59.9631880, 10.7360400, 0, 208.31, 204.39, 0.3, 159.74, -9, 178, 16972
15600, 1, 7, 59.9631880, 10.7360400, 0, 208.31, 204.39, 0.3, 159.74, -21, 180, 16966
15700, 1, 7, 59.9631880, 10.7360380, 0, 208.31, 204.43, 0.26, 159.74, -60, 182, 16943
15800, 1, 7, 59.9631880, 10.7360380, 0, 208.4, 204.43, 0.26, 159.74, -139, 185, 16936
15900, 1, 7, 59.9631880, 10.7360380, 0, 208.4, 204.43, 0.26, 159.74, -224, 203, 16946
16000, 1, 7, 59.9631880, 10.7360380, 0, 208.4, 204.47, 0.23, 159.74, -485, 194, 16934
16100, 1, 7, 59.9631880, 10.7360380, 0, 208.4, 204.47, 0.23, 159.74, -702, 152, 16939
16200, 1, 7, 59.9631730, 10.7360520, 0, 208.4, 204.54, 0.6, 156.54, -847, 81, 16879
16300, 1, 7, 59.9631730, 10.7360520, 0, 208.4, 204.54, 0.6, 156.54, -887, 32, 16930
16400, 1, 7, 59.9631730, 10.7360520, 0, 208.31, 204.54, 0.6, 156.54, -934, -3, 16888
16500, 1, 7, 59.9631730, 10.7360550, 0, 208.31, 204.54, 0.57, 154.14, -938, 8, 16932
16600, 1, 7, 59.9631730, 10.7360550, 0, 208.22, 204.54, 0.57, 154.14, -909, 2, 16927
16700, 1, 7, 59.9631730, 10.7360560, 0, 208.13, 204.54, 0.35, 153.31, -944, 13, 16931
16800, 1, 7, 59.9631730, 10.7360560, 0, 208.04, 204.54, 0.35, 153.31, -930, 35, 16966
16900, 1, 7, 59.9631730, 10.7360560, 0, 207.95, 204.54, 0.35, 153.31, -980, 28, 16939
17000, 1, 7, 59.9631690, 10.7360560, 0, 207.95, 204.54, 0.34, 146.16, -926, 53, 16959
17100, 1, 7, 59.9631690, 10.7360560, 0, 207.95, 204.54, 0.34, 146.16, -889, 51, 16968
17200, 1, 7, 59.9631690, 10.7360570, 0, 207.95, 204.53, 0.3, 146.16, -931, 62, 16990
17300, 1, 7, 59.9631690, 10.7360570, 0, 207.86, 204.53, 0.3, 146.16, -971, 78, 16993
17400, 1, 7, 59.9631690, 10.7360570, 0, 207.86, 204.53, 0.3, 146.16, -954, 73, 16989
17500, 1, 7, 59.9631690, 10.7360570, 0, 207.86, 204.53, 0.22, 146.16, -919, 88, 16995
17600, 1, 7, 59.9631690, 10.7360570, 0, 207.95, 204.53, 0.22, 146.16, -886, 102, 17010
17700, 1, 7, 59.9631690, 10.7360600, 0, 208.04, 204.52, 0.18, 146.16, -855, 105, 17006
17800, 1, 7, 59.9631690, 10.7360600, 0, 208.04, 204.52, 0.18, 146.16, -755, 117, 17026
17900, 1, 7, 59.9631690, 10.7360600, 0, 208.04, 204.52, 0.18, 146.16, -617, 118, 17017
18000, 1, 7, 59.9631690, 10.7360600, 0, 208.04, 204.52, 0.09, 146.16, -411, 126, 17033
18100, 1, 7, 59.9631690, 10.7360600, 0, 208.04, 204.52, 0.09, 146.16, -246, 126, 17033
18200, 1, 7, 59.9631690, 10.7360570, 0, 208.04, 204.5, 0.12, 146.16, -101, 128, 17062
18300, 1, 7, 59.9631690, 10.7360570, 0, 208.04, 204.5, 0.12, 146.16, 90, 126, 17048
18400, 1, 7, 59.9631690, 10.7360570, 0, 208.04, 204.5, 0.12, 146.16, 336, 121, 17044
18500, 1, 7, 59.9631690, 10.7360560, 0, 208.04, 204.51, 0.16, 146.16, 542, 107, 17065
18600, 1, 7, 59.9631690, 10.7360560, 0, 208.13, 204.51, 0.16, 146.16, 631, 110, 17046
18700, 1, 7, 59.9631690, 10.7360530, 0, 208.13, 204.51, 0.19, 146.16, 677, 96, 17052
18800, 1, 7, 59.9631690, 10.7360530, 0, 208.13, 204.51, 0.19, 146.16, 720, 87, 17015
18900, 1, 7, 59.9631690, 10.7360530, 0, 208.13, 204.51, 0.19, 146.16, 721, 78, 17006
19000, 1, 7, 59.9631730, 10.7360500, 0, 208.13, 204.37, 0.2, 146.16, 683, 80, 17008
19100, 1, 7, 59.9631730, 10.7360500, 0, 208.13, 204.37, 0.2, 146.16, 561, 72, 16959
19200, 1, 7, 59.9631730, 10.7360500, 0, 208.13, 204.35, 0.17, 146.16, 561, 70, 16955
19300, 1, 7, 59.9631730, 10.7360500, 0, 208.13, 204.35, 0.17, 146.16, 633, 73, 16940
19400, 1, 7, 59.9631730, 10.7360500, 0, 208.13, 204.35, 0.17, 146.16, 576, 59, 16927
19500, 1, 7, 59.9631730, 10.7360500, 0, 208.13, 204.32, 0.18, 146.16, 645, 72, 16929
19600, 1, 7, 59.9631730, 10.7360500, 0, 208.13, 204.32, 0.18, 146.16, 683, 75, 16896
19700, 1, 7, 59.9631690, 10.7360500, 0, 208.22, 204.27, 0.16, 146.16, 726, 69, 16909
19800, 1, 7, 59.9631690, 10.7360500, 0, 208.22, 204.27, 0.16, 146.16, 698, 75, 16894
19900, 1, 7, 59.9631690, 10.7360500, 0, 208.22, 204.27, 0.16, 146.16, 678, 67, 16878
20000, 1, 7, 59.9631690, 10.7360500, 0, 208.22, 204.22, 0.14, 146.16, 653, 65, 16863
20100, 1, 7, 59.9631690, 10.7360500, 0, 208.22, 204.22, 0.14, 146.16, 642, 70, 16868
20200, 1, 7, 59.9631690, 10.7360500, 0, 208.22, 204.17, 0.13, 146.16, 621, 74, 16847
20300, 1, 7, 59.9631690, 10.7360500, 0, 208.22, 204.17, 0.13, 146.16, 630, 62, 16839
20400, 1, 7, 59.9631690, 10.7360500, 0, 208.22, 204.17, 0.13, 146.16, 617, 48, 16863
20500, 1, 7, 59.9631690, 10.7360520, 0, 208.22, 204.11, 0.13, 146.16, 555, 50, 16814
20600, 1, 7, 59.9631690, 10.7360520, 0, 208.31, 204.11, 0.13, 146.16, 654, 71, 16811
20700, 1, 7, 59.9631690, 10.7360520, 0, 208.31, 204.11, 0.09, 146.16, 691, 66, 16818
20800, 1, 7, 59.9631690, 10.7360520, 0, 208.31, 204.11, 0.09, 146.16, 612, 64, 16807
20900, 1, 7, 59.9631690, 10.7360520, 0, 208.31, 204.11, 0.09, 146.16, 576, 79, 16799
21000, 1, 7, 59.9631690, 10.7360520, 0, 208.31, 204.1, 0.06, 146.16, 494, 80, 16790
21100, 1, 7, 59.9631690, 10.7360520, 0, 208.22, 204.1, 0.06, 146.16, 436, 69, 16783
21200, 1, 7, 59.9631690, 10.7360500, 0, 208.22, 204.09, 0.08, 146.16, 442, 75, 16769
21300, 1, 7, 59.9631690, 10.7360500, 0, 208.22, 204.09, 0.08, 146.16, 497, 72, 16762
21400, 1, 7, 59.9631690, 10.7360500, 0, 208.22, 204.09, 0.08, 146.16, 587, 71, 16772
21500, 1, 7, 59.9631690, 10.7360500, 0, 208.22, 204.09, 0.09, 146.16, 624, 70, 16750
21600, 1, 7, 59.9631690, 10.7360500, 0, 208.22, 204.09, 0.09, 146.16, 686, 76, 16747
21700, 1, 7, 59.9631690, 10.7360500, 0, 208.22, 204.08, 0.09, 146.16, 710, 71, 16759
21800, 1, 7, 59.9631690, 10.7360500, 0, 208.31, 204.08, 0.09, 146.16, 667, 65, 16740
21900, 1, 7, 59.9631690, 10.7360500, 0, 208.31, 204.08, 0.09, 146.16, 651, 66, 16738
22000, 1, 7, 59.9631690, 10.7360500, 0, 208.22, 204.08, 0.09, 146.16, 645, 70, 16720
22100, 1, 7, 59.9631690, 10.7360500, 0, 208.31, 204.08, 0.09, 146.16, 589, 84, 16707
22200, 1, 7, 59.9631690, 10.7360500, 0, 208.31, 204.08, 0.08, 146.16, 520, 107, 16700
22300, 1, 7, 59.9631690, 10.7360500, 0, 208.22, 204.08, 0.08, 146.16, 364, 136, 16682
22400, 1, 7, 59.9631690, 10.7360500, 0, 208.22, 204.08, 0.08, 146.16, 183, 155, 16700
22500, 1, 7, 59.9631690, 10.7360500, 0, 208.13, 204.08, 0.07, 146.16, -144, 157, 16684
22600, 1, 7, 59.9631690, 10.7360500, 0, 208.13, 204.08, 0.07, 146.16, -417, 149, 16698
22700, 1, 7, 59.9631690, 10.7360500, 0, 208.13, 204.08, 0.18, 146.16, -671, 118, 16672
22800, 1, 7, 59.9631690, 10.7360500, 0, 208.13, 204.08, 0.18, 146.16, -803, 92, 16670
22900, 1, 7, 59.9631690, 10.7360500, 0, 208.13, 204.08, 0.18, 146.16, -864, 79, 16679
23000, 1, 7, 59.9631690, 10.7360520, 0, 208.13, 204.07, 0.18, 146.16, -1005, 73, 16698
23100, 1, 7, 59.9631690, 10.7360520, 0, 208.04, 204.07, 0.18, 146.16, -1125, 75, 16723
23200, 1, 7, 59.9631690, 10.7360520, 0, 208.04, 204.07, 0.12, 146.16, -1216, 71, 16697
23300, 1, 7, 59.9631690, 10.7360520, 0, 207.95, 204.07, 0.12, 146.16, -1218, 74, 16726
23400, 1, 7, 59.9631690, 10.7360520, 0, 207.95, 204.07, 0.12, 146.16, -1215, 97, 16723
23500, 1, 7, 59.9631690, 10.7360520, 0, 207.86, 204.07, 0.1, 146.16, -1245, 95, 16736
23600, 1, 7, 59.9631690, 10.7360520, 0, 207.86, 204.07, 0.1, 146.16, -1198, 31, 16770
23700, 1, 7, 59.9631690, 10.7360530, 0, 207.95, 204.06, 0.16, 146.16, -1214, -25, 16750
23800, 1, 7, 59.9631690, 10.7360530, 0, 208.04, 204.06, 0.16, 146.16, -1166, -1, 16792
23900, 1, 7, 59.9631690, 10.7360530, 0, 208.04, 204.06, 0.16, 146.16, -1174, 3, 16779
24000, 1, 7, 59.9631690, 10.7360530, 0, 208.04, 204.06, 0.07, 146.16, -1199, 6, 16807
24100, 1, 7, 59.9631690, 10.7360530, 0, 208.04, 204.06, 0.07, 146.16, -1216, 34, 16817
24200, 1, 7, 59.9631690, 10.7360530, 0, 208.04, 204.05, 0.01, 146.16, -1243, 31, 16816
24300, 1, 7, 59.9631690, 10.7360530, 0, 208.04, 204.05, 0.01, 146.16, -1230, 65, 16852
24400, 1, 7, 59.9631690, 10.7360530, 0, 208.13, 204.05, 0.01, 146.16, -1277, 90, 16890
24500, 1, 7, 59.9631690, 10.7360530, 0, 208.13, 204.05, 0.01, 146.16, -1307, 155, 16948
24600, 1, 7, 59.9631690, 10.7360530, 0, 208.04, 204.05, 0.01, 146.16, -1331, 220, 16955
24700, 1, 7, 59.9631690, 10.7360530, 0, 208.04, 204.04, 0.03, 146.16, -1270, 301, 17034
24800, 1, 7, 59.9631690, 10.7360530, 0, 208.04, 204.04, 0.03, 146.16, -1224, 385, 17099
24900, 1, 7, 59.9631690, 10.7360530, 0, 207.95, 204.04, 0.03, 146.16, -1161, 489, 17215
25000, 1, 7, 59.9631690, 10.7360530, 0, 208.04, 204.04, 0.11, 146.16, -1087, 615, 17342
25100, 1, 7, 59.9631690, 10.7360530, 0, 208.13, 204.04, 0.11, 146.16, -988, 755, 17492
25200, 1, 7, 59.9631690, 10.7360530, 0, 208.13, 204.03, 0.37, 195.85, -858, 830, 17646
25300, 1, 7, 59.9631690, 10.7360530, 0, 208.13, 204.03, 0.37, 195.85, -755, 745, 17743
25400, 1, 7, 59.9631690, 10.7360530, 0, 208.04, 204.03, 0.37, 195.85, -577, 611, 17841
25500, 1, 7, 59.9631690, 10.7360530, 0, 208.13, 204.02, 1.16, 185.66, -350, 481, 17939
25600, 1, 7, 59.9631690, 10.7360530, 0, 208.22, 204.02, 1.16, 185.66, -198, 407, 18078
25700, 1, 7, 59.9631690, 10.7360530, 0, 208.22, 203.97, 1.24, 187.07, -173, 376, 18321
25800, 1, 7, 59.9631690, 10.7360530, 0, 208.31, 203.97, 1.24, 187.07, -203, 350, 18548
25900, 1, 7, 59.9631690, 10.7360530, 0, 208.31, 203.97, 1.24, 187.07, -192, 274, 18786
26000, 1, 7, 59.9631610, 10.7360520, 0, 208.31, 203.97, 1.27, 188.41, -368, 222, 18857
26100, 1, 7, 59.9631610, 10.7360520, 0, 208.31, 203.97, 1.27, 188.41, -451, 233, 18841
26200, 1, 7, 59.9631610, 10.7360500, 0, 208.4, 203.96, 1.39, 186.83, -524, 162, 18753
26300, 1, 7, 59.9631610, 10.7360500, 0, 208.49, 203.96, 1.39, 186.83, -565, 90, 18477
26400, 1, 7, 59.9631610, 10.7360500, 0, 208.4, 203.96, 1.39, 186.83, -474, 56, 18200
26500, 1, 7, 59.9631540, 10.7360500, 0, 208.4, 203.91, 1.55, 187.77, -289, 145, 18064
26600, 1, 7, 59.9631540, 10.7360500, 0, 208.49, 203.91, 1.55, 187.77, -228, 203, 17922
26700, 1, 7, 59.9631540, 10.7360480, 0, 208.49, 203.84, 1.66, 188.84, -105, 249, 17920
26800, 1, 7, 59.9631540, 10.7360480, 0, 208.49, 203.84, 1.66, 188.84, -71, 292, 17973
26900, 1, 7, 59.9631540, 10.7360480, 0, 208.57, 203.84, 1.66, 188.84, -150, 342, 17893
27000, 1, 7, 59.9631500, 10.7360450, 0, 208.57, 203.77, 1.65, 189.55, -157, 394, 17761
27100, 1, 7, 59.9631500, 10.7360450, 0, 208.49, 203.77, 1.65, 189.55, -123, 375, 17605
27200, 1, 7, 59.9631500, 10.7360430, 0, 208.49, 203.7, 2.14, 189.52, 24, 364, 17540
27300, 1, 7, 59.9631500, 10.7360430, 0, 208.57, 203.7, 2.14, 189.52, 181, 342, 17537
27400, 1, 7, 59.9631500, 10.7360430, 0, 208.49, 203.7, 2.14, 189.52, 288, 254, 17572
27500, 1, 7, 59.9631420, 10.7360430, 0, 208.49, 203.62, 2.46, 189.71, 375, 180, 17588
27600, 1, 7, 59.9631420, 10.7360430, 0, 208.49, 203.62, 2.46, 189.71, 486, 140, 17694
27700, 1, 7, 59.9631350, 10.7360430, 0, 208.57, 203.52, 2.91, 189.07, 591, 35, 17789
27800, 1, 7, 59.9631350, 10.7360430, 0, 208.57, 203.52, 2.91, 189.07, 713, 3, 18082
27900, 1, 7, 59.9631350, 10.7360430, 0, 208.57, 203.52, 2.91, 189.07, 664, -25, 18391
28000, 1, 7, 59.9631310, 10.7360430, 0, 208.57, 203.41, 3.53, 188.09, 644, -75, 18749
28100, 1, 7, 59.9631310, 10.7360430, 0, 208.57, 203.41, 3.53, 188.09, 461, -120, 18952
28200, 1, 7, 59.9631230, 10.7360450, 0, 208.57, 203.29, 4.41, 186.82, 431, -204, 19207
28300, 1, 7, 59.9631230, 10.7360450, 0, 208.49, 203.29, 4.41, 186.82, 314, -279, 19498
28400, 1, 7, 59.9631230, 10.7360450, 0, 208.49, 203.29, 4.41, 186.82, 83, -370, 19673
28500, 1, 7, 59.9631120, 10.7360470, 0, 208.49, 203.14, 4.95, 185.85, -142, -430, 19716
28600, 1, 7, 59.9631120, 10.7360470, 0, 208.4, 203.14, 4.95, 185.85, -361, -429, 19531
28700, 1, 7, 59.9631040, 10.7360500, 0, 208.4, 202.97, 4.57, 184.68, -476, -437, 19273
28800, 1, 7, 59.9631040, 10.7360500, 0, 208.4, 202.97, 4.57, 184.68, -462, -444, 19042
28900, 1, 7, 59.9631040, 10.7360500, 0, 208.22, 202.97, 4.57, 184.68, -439, -453, 18829
29000, 1, 7, 59.9630930, 10.7360520, 0, 208.22, 202.81, 4.24, 182.35, -306, -401, 18713
29100, 1, 7, 59.9630930, 10.7360520, 0, 208.22, 202.81, 4.24, 182.35, -194, -259, 18741
29200, 1, 7, 59.9630780, 10.7360520, 0, 208.22, 202.65, 3.9, 188.17, -211, -65, 18816
29300, 1, 7, 59.9630780, 10.7360520, 0, 208.22, 202.65, 3.9, 188.17, -342, 5, 18796
29400, 1, 7, 59.9630780, 10.7360520, 0, 208.22, 202.65, 3.9, 188.17, -417, 119, 18690
29500, 1, 7, 59.9630740, 10.7360480, 0, 208.22, 202.5, 3.58, 186.87, -474, 160, 18490
29600, 1, 7, 59.9630740, 10.7360480, 0, 208.31, 202.5, 3.58, 186.87, -377, 214, 18383
29700, 1, 7, 59.9630660, 10.7360500, 0, 208.31, 202.36, 3.56, 185.67, -310, 263, 18296
29800, 1, 7, 59.9630660, 10.7360500, 0, 208.49, 202.36, 3.56, 185.67, -154, 279, 18478
29900, 1, 7, 59.9630660, 10.7360500, 0, 208.49, 202.36, 3.56, 185.67, -193, 344, 18629
30000, 1, 7, 59.9630580, 10.7360520, 0, 208.4, 202.23, 3.52, 184.03, -346, 327, 18665
30100, 1, 7, 59.9630580, 10.7360520, 0, 208.49, 202.23, 3.52, 184.03, -457, 432, 18613
30200, 1, 7, 59.9630550, 10.7360550, 0, 208.57, 202.1, 3.53, 181.86, -465, 396, 18627
30300, 1, 7, 59.9630550, 10.7360550, 0, 208.57, 202.1, 3.53, 181.86, -532, 448, 18568
30400, 1, 7, 59.9630550, 10.7360550, 0, 208.57, 202.1, 3.53, 181.86, -549, 487, 18506
30500, 1, 7, 59.9630390, 10.7360600, 0, 208.66, 201.97, 3.35, 179.28, -527, 500, 18480
30600, 1, 7, 59.9630390, 10.7360600, 0, 208.66, 201.97, 3.35, 179.28, -520, 503, 18460
30700, 1, 7, 59.9630390, 10.7360600, 0, 208.66, 201.97, 3.35, 179.28, -548, 435, 18433
30800, 1, 7, 59.9630320, 10.7360600, 0, 208.66, 201.88, 3.16, 177.41, -590, 422, 18366
30900, 1, 7, 59.9630320, 10.7360600, 0, 208.57, 201.88, 3.16, 177.41, -639, 367, 18241
31000, 1, 7, 59.9630280, 10.7360660, 0, 208.49, 201.74, 3.72, 173.87, -504, 297, 18263
31100, 1, 7, 59.9630280, 10.7360660, 0, 208.49, 201.74, 3.72, 173.87, -621, 475, 18083
31200, 1, 7, 59.9630280, 10.7360660, 0, 208.57, 201.74, 3.72, 173.87, -642, 465, 17860
31300, 1, 7, 59.9630280, 10.7360780, 0, 208.66, 201.58, 4.39, 169.49, -685, 365, 17613
31400, 1, 7, 59.9630280, 10.7360780, 0, 208.66, 201.58, 4.39, 169.49, -663, 307, 17436
31500, 1, 7, 59.9630200, 10.7360950, 0, 208.75, 201.39, 4.62, 164.96, -653, 316, 17227
31600, 1, 7, 59.9630200, 10.7360950, 0, 208.75, 201.39, 4.62, 164.96, -594, 284, 17131
31700, 1, 7, 59.9630200, 10.7360950, 0, 208.75, 201.39, 4.62, 164.96, -619, 231, 16941
31800, 1, 7, 59.9630130, 10.7361150, 0, 208.75, 201.2, 3.8, 160.62, -585, 279, 16653
31900, 1, 7, 59.9630130, 10.7361150, 0, 208.75, 201.2, 3.8, 160.62, -420, 321, 16449
32000, 1, 7, 59.9630090, 10.7361280, 0, 208.66, 201.01, 3.65, 114.98, -212, 345, 16421
32100, 1, 7, 59.9630090, 10.7361280, 0, 208.66, 201.01, 3.65, 114.98, -147, 368, 16421
32200, 1, 7, 59.9630090, 10.7361280, 0, 208.49, 201.01, 3.65, 114.98, -184, 394, 16373
32300, 1, 7, 59.9630090, 10.7361430, 0, 208.4, 200.82, 4.1, 118.3, -278, 355, 16236
32400, 1, 7, 59.9630090, 10.7361430, 0, 208.4, 200.82, 4.1, 118.3, -313, 287, 16122
32500, 1, 7, 59.9630010, 10.7361600, 0, 208.4, 200.63, 3.55, 119.27, -411, 293, 15960
32600, 1, 7, 59.9630010, 10.7361600, 0, 208.4, 200.63, 3.55, 119.27, -416, 328, 15820
32700, 1, 7, 59.9630010, 10.7361600, 0, 208.4, 200.63, 3.55, 119.27, -450, 380, 15775
32800, 1, 7, 59.9629940, 10.7361730, 0, 208.4, 200.44, 2.72, 126.99, -570, 412, 15573
32900, 1, 7, 59.9629940, 10.7361730, 0, 208.49, 200.44, 2.72, 126.99, -587, 430, 15459
33000, 1, 7, 59.9629940, 10.7361830, 0, 208.49, 200.27, 2.69, 126.33, -672, 463, 15251
33100, 1, 7, 59.9629940, 10.7361830, 0, 208.49, 200.27, 2.69, 126.33, -718, 484, 15022
33200, 1, 7, 59.9629940, 10.7361830, 0, 208.49, 200.27, 2.69, 126.33, -748, 531, 14694
33300, 1, 7, 59.9629900, 10.7361930, 0, 208.57, 200.11, 2.22, 125.71, -649, 540, 14506
33400, 1, 7, 59.9629900, 10.7361930, 0, 208.57, 200.11, 2.22, 125.71, -672, 433, 14293
33500, 1, 7, 59.9629900, 10.7362000, 0, 208.57, 199.96, 1.92, 125.12, -698, 425, 14063
33600, 1, 7, 59.9629900, 10.7362000, 0, 208.57, 199.96, 1.92, 125.12, -753, 480, 13755
33700, 1, 7, 59.9629900, 10.7362000, 0, 208.57, 199.96, 1.92, 125.12, -730, 384, 13465
33800, 1, 7, 59.9629900, 10.7362100, 0, 208.57, 199.82, 1.9, 111.69, -743, 366, 13118
33900, 1, 7, 59.9629900, 10.7362100, 0, 208.57, 199.82, 1.9, 111.69, -607, 351, 12850
34000, 1, 7, 59.9629820, 10.7362160, 0, 208.66, 199.7, 2.24, 101.9, -496, 438, 12567
34100, 1, 7, 59.9629820, 10.7362160, 0, 208.57, 199.7, 2.24, 101.9, -430, 655, 12298
34200, 1, 7, 59.9629820, 10.7362160, 0, 208.49, 199.7, 2.24, 101.9, -351, 661, 12105
34300, 1, 7, 59.9629820, 10.7362250, 0, 208.49, 199.58, 2.27, 102.44, -289, 684, 11878
34400, 1, 7, 59.9629820, 10.7362250, 0, 208.66, 199.58, 2.27, 102.44, -177, 780, 11663
34500, 1, 7, 59.9629820, 10.7362360, 0, 208.66, 199.48, 2.51, 103.51, -68, 730, 11437
34600, 1, 7, 59.9629820, 10.7362360, 0, 208.66, 199.48, 2.51, 103.51, 66, 670, 11252
34700, 1, 7, 59.9629820, 10.7362360, 0, 208.66, 199.48, 2.51, 103.51, 198, 669, 11124
34800, 1, 7, 59.9629820, 10.7362460, 0, 208.66, 199.37, 2.09, 105.93, 324, 615, 11008
34900, 1, 7, 59.9629820, 10.7362460, 0, 208.75, 199.37, 2.09, 105.93, 487, 493, 10974
35000, 1, 7, 59.9629750, 10.7362560, 0, 208.66, 199.27, 2.32, 108.22, 596, 507, 11003
35100, 1, 7, 59.9629750, 10.7362560, 0, 208.57, 199.27, 2.32, 108.22, 644, 441, 11042
35200, 1, 7, 59.9629750, 10.7362560, 0, 208.49, 199.27, 2.32, 108.22, 666, 319, 11095
35300, 1, 7, 59.9629750, 10.7362630, 0, 208.4, 199.18, 2.23, 110.64, 694, 205, 11162
35400, 1, 7, 59.9629750, 10.7362630, 0, 208.4, 199.18, 2.23, 110.64, 764, 200, 11270
35500, 1, 7, 59.9629630, 10.7362730, 0, 208.4, 199.07, 2.43, 139.15, 926, 145, 11548
35600, 1, 7, 59.9629630, 10.7362730, 0, 208.4, 199.07, 2.43, 139.15, 831, 154, 11690
35700, 1, 7, 59.9629630, 10.7362730, 0, 208.22, 199.07, 2.43, 139.15, 783, 95, 11880
35800, 1, 7, 59.9629550, 10.7362860, 0, 207.95, 198.95, 2.67, 140.76, 724, 140, 11957
35900, 1, 7, 59.9629550, 10.7362860, 0, 208.13, 198.95, 2.67, 140.76, 829, 231, 12104
36000, 1, 7, 59.9629440, 10.7362980, 0, 208.13, 198.82, 2.97, 144.81, 863, 192, 12261
36100, 1, 7, 59.9629440, 10.7362980, 0, 208.13, 198.82, 2.97, 144.81, 924, 100, 12428
36200, 1, 7, 59.9629440, 10.7362980, 0, 208.22, 198.82, 2.97, 144.81, 944, 50, 12653
36300, 1, 7, 59.9629360, 10.7363100, 0, 208.31, 198.72, 3.01, 156.29, 977, 79, 12936
36400, 1, 7, 59.9629360, 10.7363100, 0, 208.49, 198.72, 3.01, 156.29, 913, 93, 13231
36500, 1, 7, 59.9629250, 10.7363380, 0, 208.57, 198.68, 3.03, 154.84, 887, 114, 13560
36600, 1, 7, 59.9629250, 10.7363380, 0, 208.57, 198.68, 3.03, 154.84, 784, 151, 13887
36700, 1, 7, 59.9629250, 10.7363380, 0, 208.57, 198.68, 3.03, 154.84, 675, 100, 14281
36800, 1, 7, 59.9629060, 10.7363630, 0, 208.57, 198.63, 3.32, 154.47, 413, 62, 14574
36900, 1, 7, 59.9629060, 10.7363630, 0, 208.57, 198.63, 3.32, 154.47, 280, 156, 14838
37000, 1, 7, 59.9628940, 10.7363760, 0, 208.66, 198.65, 3.47, 156.17, 129, 199, 15093
37100, 1, 7, 59.9628940, 10.7363760, 0, 208.66, 198.65, 3.47, 156.17, -136, 249, 15280
37200, 1, 7, 59.9628940, 10.7363760, 0, 208.66, 198.65, 3.47, 156.17, -356, 252, 15382
37300, 1, 7, 59.9628790, 10.7363950, 0, 208.66, 198.65, 4.76, 157.03, -625, 178, 15299
37400, 1, 7, 59.9628790, 10.7363950, 0, 208.66, 198.65, 4.76, 157.03, -736, 105, 15206
37500, 1, 7, 59.9628680, 10.7364030, 0, 208.75, 198.65, 5.1, 156.42, -756, 121, 15305
37600, 1, 7, 59.9628680, 10.7364030, 0, 208.75, 198.65, 5.1, 156.42, -965, 192, 15362
37700, 1, 7, 59.9628680, 10.7364030, 0, 208.75, 198.65, 5.1, 156.42, -1176, 224, 15279
37800, 1, 7, 59.9628600, 10.7364110, 0, 208.75, 198.66, 5.53, 150.6, -1356, 259, 15115
37900, 1, 7, 59.9628600, 10.7364110, 0, 208.75, 198.66, 5.53, 150.6, -1445, 361, 14962
38000, 1, 7, 59.9628490, 10.7364240, 0, 208.66, 198.66, 5.81, 143.89, -1511, 337, 14797
38100, 1, 7, 59.9628490, 10.7364240, 0, 208.66, 198.66, 5.81, 143.89, -1504, 325, 14643
38200, 1, 7, 59.9628490, 10.7364240, 0, 208.66, 198.66, 5.81, 143.89, -1545, 323, 14450
38300, 1, 7, 59.9628330, 10.7364400, 0, 208.84, 198.64, 5.9, 146.32, -1605, 390, 14107
38400, 1, 7, 59.9628330, 10.7364400, 0, 208.93, 198.64, 5.9, 146.32, -1473, 369, 13840
38500, 1, 7, 59.9628300, 10.7364530, 0, 208.84, 198.61, 5.26, 146.84, -1251, 301, 13760
38600, 1, 7, 59.9628300, 10.7364530, 0, 209.02, 198.61, 5.26, 146.84, -1199, 229, 13724
38700, 1, 7, 59.9628300, 10.7364530, 0, 209.19, 198.61, 5.26, 146.84, -1012, 103, 13722
38800, 1, 7, 59.9628140, 10.7364650, 0, 209.37, 198.59, 5.26, 148.37, -1096, 388, 13496
38900, 1, 7, 59.9628140, 10.7364650, 0, 209.55, 198.59, 5.26, 148.37, -1116, 189, 13366
39000, 1, 7, 59.9628030, 10.7364760, 0, 209.55, 198.58, 5.38, 145.76, -1023, 68, 13145
39100, 1, 7, 59.9628030, 10.7364760, 0, 209.82, 198.58, 5.38, 145.76, -911, 273, 13024
39200, 1, 7, 59.9628030, 10.7364760, 0, 209.99, 198.58, 5.38, 145.76, -615, 197, 12978
39300, 1, 7, 59.9627950, 10.7364910, 0, 209.91, 198.58, 4.82, 144.91, -766, 266, 12801
39400, 1, 7, 59.9627950, 10.7364910, 0, 209.73, 198.58, 4.82, 144.91, -597, 314, 12684
39500, 1, 7, 59.9627910, 10.7365040, 0, 209.82, 198.62, 5.25, 127.65, -567, 481, 12618
39600, 1, 7, 59.9627910, 10.7365040, 0, 209.91, 198.62, 5.25, 127.65, -448, 522, 12507
39700, 1, 7, 59.9627910, 10.7365040, 0, 210.08, 198.62, 5.25, 127.65, -312, 356, 12339
39800, 1, 7, 59.9627840, 10.7365210, 0, 210.26, 198.66, 6.08, 115.01, -376, 307, 12201
39900, 1, 7, 59.9627840, 10.7365210, 0, 210.26, 198.66, 6.08, 115.01, -528, 367, 11990
40000, 1, 7, 59.9627760, 10.7365460, 0, 210.35, 198.68, 4.72, 113.35, -536, 504, 11896
40100, 1, 7, 59.9627760, 10.7365460, 0, 210.44, 198.68, 4.72, 113.35, -662, 574, 11668
40200, 1, 7, 59.9627760, 10.7365460, 0, 210.53, 198.68, 4.72, 113.35, -663, 615, 11355
40300, 1, 7, 59.9627720, 10.7365670, 0, 210.7, 198.72, 4.08, 114.83, -605, 799, 11143
40400, 1, 7, 59.9627720, 10.7365670, 0, 210.88, 198.72, 4.08, 114.83, -489, 791, 10994
40500, 1, 7, 59.9627650, 10.7365830, 0, 210.88, 198.79, 3.45, 113.61, -438, 801, 10799
40600, 1, 7, 59.9627650, 10.7365830, 0, 210.88, 198.79, 3.45, 113.61, -431, 961, 10531
40700, 1, 7, 59.9627650, 10.7365830, 0, 210.79, 198.79, 3.45, 113.61, -381, 1099, 10215
40800, 1, 7, 59.9627650, 10.7365960, 0, 210.88, 198.88, 2.71, 113.16, -208, 1120, 10041
40900, 1, 7, 59.9627650, 10.7365960, 0, 210.97, 198.88, 2.71, 113.16, -147, 1190, 9896
41000, 1, 7, 59.9627570, 10.7366080, 0, 210.97, 199.01, 3.09, 104.92, -175, 1179, 9717
41100, 1, 7, 59.9627570, 10.7366080, 0, 211.06, 199.01, 3.09, 104.92, -124, 1188, 9593
41200, 1, 7, 59.9627570, 10.7366080, 0, 210.88, 199.01, 3.09, 104.92, -215, 1186, 9492
41300, 1, 7, 59.9627570, 10.7366210, 0, 210.79, 199.13, 3.42, 86.35, -401, 1137, 9206
41400, 1, 7, 59.9627570, 10.7366210, 0, 210.79, 199.13, 3.42, 86.35, -395, 1014, 9026
41500, 1, 7, 59.9627570, 10.7366360, 0, 210.7, 199.26, 4.35, 82.02, -456, 922, 8856
41600, 1, 7, 59.9627570, 10.7366360, 0, 210.79, 199.26, 4.35, 82.02, -529, 812, 8686
41700, 1, 7, 59.9627570, 10.7366360, 0, 210.79, 199.26, 4.35, 82.02, -648, 760, 8464
41800, 1, 7, 59.9627570, 10.7366560, 0, 210.88, 199.38, 3.94, 68.27, -750, 709, 8188
41900, 1, 7, 59.9627570, 10.7366560, 0, 211.15, 199.38, 3.94, 68.27, -793, 706, 7864
42000, 1, 7, 59.9627650, 10.7366720, 0, 211.15, 199.5, 2.63, 64.13, -769, 722, 7546
42100, 1, 7, 59.9627650, 10.7366720, 0, 211.15, 199.5, 2.63, 64.13, -771, 734, 7176
42200, 1, 7, 59.9627650, 10.7366720, 0, 211.24, 199.5, 2.63, 64.13, -693, 803, 6840
42300, 1, 7, 59.9627650, 10.7366830, 0, 211.24, 199.64, 2.16, 65.64, -595, 919, 6545
42400, 1, 7, 59.9627650, 10.7366830, 0, 211.33, 199.64, 2.16, 65.64, -539, 969, 6224
42500, 1, 7, 59.9627720, 10.7366910, 0, 211.42, 199.82, 2.02, 73.42, -457, 1017, 5940
42600, 1, 7, 59.9627720, 10.7366910, 0, 211.42, 199.82, 2.02, 73.42, -343, 1037, 5736
42700, 1, 7, 59.9627720, 10.7366910, 0, 211.5, 199.82, 2.02, 73.42, -342, 1081, 5552
42800, 1, 7, 59.9627720, 10.7367010, 0, 211.59, 200.03, 2.03, 78.08, -340, 1075, 5390
42900, 1, 7, 59.9627720, 10.7367010, 0, 211.59, 200.03, 2.03, 78.08, -439, 1126, 5197
43000, 1, 7, 59.9627720, 10.7367110, 0, 211.5, 200.27, 2.35, 92.41, -521, 1007, 4909
43100, 1, 7, 59.9627720, 10.7367110, 0, 211.59, 200.27, 2.35, 92.41, -536, 906, 4614
43200, 1, 7, 59.9627720, 10.7367110, 0, 211.59, 200.27, 2.35, 92.41, -524, 831, 4366
43300, 1, 7, 59.9627720, 10.7367200, 0, 211.77, 200.56, 2.16, 112.23, -478, 766, 4239
43400, 1, 7, 59.9627720, 10.7367200, 0, 211.77, 200.56, 2.16, 112.23, -504, 701, 4164
43500, 1, 7, 59.9627720, 10.7367360, 0, 211.77, 201.01, 1.56, 110.02, -596, 725, 4093
43600, 1, 7, 59.9627720, 10.7367360, 0, 211.86, 201.01, 1.56, 110.02, -734, 641, 3901
43700, 1, 7, 59.9627720, 10.7367360, 0, 211.86, 201.01, 1.56, 110.02, -862, 632, 3544
43800, 1, 7, 59.9627760, 10.7367480, 0, 211.86, 200.53, 1.34, 108.58, -811, 508, 3239
43900, 1, 7, 59.9627760, 10.7367480, 0, 211.86, 200.53, 1.34, 108.58, -787, 393, 2938
44000, 1, 6, 59.9627910, 10.7367580, 0, 211.86, 200.11, 1.81, 60.35, -783, 270, 2587
44100, 1, 6, 59.9627910, 10.7367580, 0, 211.86, 200.11, 1.81, 60.35, 157, 47, 2224
44200, 1, 6, 59.9627910, 10.7367580, 0, 212.04, 200.11, 1.81, 60.35, -417, 340, 1952
44300, 1, 6, 59.9627910, 10.7367830, 0, 211.86, 199.69, 2.67, 61.63, -583, 457, 1767
44400, 1, 6, 59.9627910, 10.7367830, 0, 211.86, 199.69, 2.67, 61.63, -624, 423, 1490
44500, 1, 6, 59.9627910, 10.7367920, 0, 211.86, 200.14, 3.17, 60.69, -684, 446, 1234
44600, 1, 6, 59.9627910, 10.7367920, 0, 211.86, 200.14, 3.17, 60.69, -707, 508, 1005
44700, 1, 6, 59.9627910, 10.7367920, 0, 211.86, 200.14, 3.17, 60.69, -771, 541, 776
44800, 1, 6, 59.9627950, 10.7368030, 0, 211.86, 200.09, 2.51, 57.85, -833, 514, 532
44900, 1, 6, 59.9627950, 10.7368030, 0, 212.04, 200.09, 2.51, 57.85, -916, 468, 227
45000, 1, 7, 59.9627950, 10.7368120, 0, 212.13, 200.21, 2.66, 56.95, -927, 416, 35927
45100, 1, 7, 59.9627950, 10.7368120, 0, 212.13, 200.21, 2.66, 56.95, -900, 381, 35624
45200, 1, 7, 59.9627950, 10.7368120, 0, 212.21, 200.21, 2.66, 56.95, -825, 445, 35369
45300, 1, 7, 59.9628030, 10.7368210, 0, 212.39, 200.51, 2.63, 54.8, -899, 498, 34993
45400, 1, 7, 59.9628030, 10.7368210, 0, 212.3, 200.51, 2.63, 54.8, -834, 420, 34662
45500, 1, 7, 59.9628030, 10.7368280, 0, 212.3, 200.81, 2.61, 52.13, -737, 379, 34298
45600, 1, 7, 59.9628030, 10.7368280, 0, 212.39, 200.81, 2.61, 52.13, -631, 421, 33980
45700, 1, 7, 59.9628030, 10.7368280, 0, 212.48, 200.81, 2.61, 52.13, -502, 512, 33673
45800, 1, 7, 59.9628110, 10.7368320, 0, 212.48, 200.99, 3.05, 48.91, -319, 460, 33558
45900, 1, 7, 59.9628110, 10.7368320, 0, 212.57, 200.99, 3.05, 48.91, -217, 398, 33532
46000, 1, 6, 59.9628220, 10.7368320, 0, 212.57, 201.26, 3.39, 357.53, -268, 392, 33464
46100, 1, 6, 59.9628220, 10.7368320, 0, 212.66, 201.26, 3.39, 357.53, -296, 352, 33360
46200, 1, 6, 59.9628220, 10.7368320, 0, 212.84, 201.26, 3.39, 357.53, -321, 315, 33217
46300, 1, 7, 59.9628300, 10.7368310, 0, 212.84, 201.38, 3.55, 356.52, -289, 292, 33055
46400, 1, 7, 59.9628300, 10.7368310, 0, 212.75, 201.38, 3.55, 356.52, -218, 302, 32904
46500, 1, 7, 59.9628330, 10.7368320, 0, 212.75, 201.34, 3.46, 355.48, -97, 277, 32807
46600, 1, 7, 59.9628330, 10.7368320, 0, 212.93, 201.34, 3.46, 355.48, -57, 334, 32697
46700, 1, 7, 59.9628330, 10.7368320, 0, 212.93, 201.34, 3.46, 355.48, 5, 323, 32625
46800, 1, 7, 59.9628490, 10.7368310, 0, 212.93, 201.45, 3.61, 354.31, 30, 317, 32554
46900, 1, 7, 59.9628490, 10.7368310, 0, 212.75, 201.45, 3.61, 354.31, 58, 258, 32518
47000, 1, 7, 59.9628600, 10.7368250, 0, 212.75, 201.69, 4.08, 353.05, 98, 206, 32534
47100, 1, 7, 59.9628600, 10.7368250, 0, 212.75, 201.69, 4.08, 353.05, 37, 177, 32544
47200, 1, 7, 59.9628600, 10.7368250, 0, 212.66, 201.69, 4.08, 353.05, 16, 166, 32537
47300, 1, 6, 59.9628680, 10.7368200, 0, 212.75, 201.92, 4.3, 351.8, 46, 91, 32538
47400, 1, 6, 59.9628680, 10.7368200, 0, 212.66, 201.92, 4.3, 351.8, 100, 97, 32523
47500, 1, 6, 59.9628750, 10.7368130, 0, 212.75, 202.15, 4.58, 350.69, 169, 95, 32520
47600, 1, 6, 59.9628750, 10.7368130, 0, 212.66, 202.15, 4.58, 350.69, 260, 43, 32568
47700, 1, 6, 59.9628750, 10.7368130, 0, 212.66, 202.15, 4.58, 350.69, 354, 9, 32628
47800, 1, 6, 59.9628870, 10.7368070, 0, 212.75, 202.37, 5.29, 349.59, 458, -21, 32723
47900, 1, 6, 59.9628870, 10.7368070, 0, 212.66, 202.37, 5.29, 349.59, 479, -95, 32824
48000, 1, 6, 59.9628940, 10.7367980, 0, 212.66, 202.58, 5.82, 348.72, 530, -172, 32951
48100, 1, 6, 59.9628940, 10.7367980, 0, 212.66, 202.58, 5.82, 348.72, 522, -196, 33088
48200, 1, 6, 59.9628940, 10.7367980, 0, 212.66, 202.58, 5.82, 348.72, 436, -237, 33160
48300, 1, 6, 59.9629060, 10.7367920, 0, 212.57, 202.68, 5.73, 347.8, 283, -300, 33184
48400, 1, 6, 59.9629060, 10.7367920, 0, 212.57, 202.68, 5.73, 347.8, 263, -267, 33238
48500, 1, 6, 59.9629170, 10.7367810, 0, 212.57, 202.76, 5.53, 346.04, 194, -230, 33294
48600, 1, 6, 59.9629170, 10.7367810, 0, 212.66, 202.76, 5.53, 346.04, 97, -243, 33311
48700, 1, 6, 59.9629170, 10.7367810, 0, 212.66, 202.76, 5.53, 346.04, -20, -249, 33236
48800, 1, 6, 59.9629330, 10.7367750, 0, 212.93, 202.84, 5.66, 344.21, -25, -174, 33167
48900, 1, 6, 59.9629330, 10.7367750, 0, 213.01, 202.84, 5.66, 344.21, 35, -139, 33150
49000, 1, 6, 59.9629440, 10.7367680, 0, 212.93, 202.91, 5.83, 343.92, 59, -136, 33158
49100, 1, 6, 59.9629440, 10.7367680, 0, 212.84, 202.91, 5.83, 343.92, 43, -127, 33183
49200, 1, 6, 59.9629440, 10.7367680, 0, 213.01, 202.91, 5.83, 343.92, 0, -113, 33187
49300, 1, 7, 59.9629550, 10.7367610, 0, 213.28, 202.96, 5.82, 358.37, -48, -87, 33176
49400, 1, 7, 59.9629550, 10.7367610, 0, 213.19, 202.96, 5.82, 358.37, -110, -63, 33167
49500, 1, 7, 59.9629710, 10.7367610, 0, 213.46, 202.98, 5.6, 5.18, -199, 20, 33117
49600, 1, 7, 59.9629710, 10.7367610, 0, 213.46, 202.98, 5.6, 5.18, -190, 37, 33108
49700, 1, 7, 59.9629710, 10.7367610, 0, 213.46, 202.98, 5.6, 5.18, -231, 45, 33093
49800, 1, 7, 59.9629820, 10.7367630, 0, 213.28, 202.99, 5.46, 2.84, -321, 56, 33020
49900, 1, 7, 59.9629820, 10.7367630, 0, 213.19, 202.99, 5.46, 2.84, -320, 59, 32938
50000, 1, 7, 59.9629940, 10.7367630, 0, 213.28, 203, 5.44, 345.53, -281, 108, 32870
50100, 1, 7, 59.9629940, 10.7367630, 0, 213.28, 203, 5.44, 345.53, -293, 162, 32784
50200, 1, 7, 59.9629940, 10.7367630, 0, 213.46, 203, 5.44, 345.53, -231, 171, 32724
50300, 1, 7, 59.9630090, 10.7367580, 0, 213.73, 203.05, 5.43, 348.62, -147, 143, 32705
50400, 1, 7, 59.9630090, 10.7367580, 0, 213.73, 203.05, 5.43, 348.62, -102, 209, 32684
50500, 1, 7, 59.9630200, 10.7367530, 0, 213.64, 203.11, 5.84, 346.45, -95, 229, 32655
50600, 1, 7, 59.9630200, 10.7367530, 0, 213.46, 203.11, 5.84, 346.45, -35, 133, 32634
50700, 1, 7, 59.9630200, 10.7367530, 0, 213.55, 203.11, 5.84, 346.45, 43, 28, 32630
50800, 1, 7, 59.9630320, 10.7367460, 0, 213.55, 203.17, 5.59, 354.72, 138, 92, 32648
50900, 1, 7, 59.9630320, 10.7367460, 0, 213.64, 203.17, 5.59, 354.72, 237, 217, 32700
51000, 1, 7, 59.9630470, 10.7367450, 0, 213.55, 203.22, 4.95, 352.73, 360, 261, 32795
51100, 1, 7, 59.9630470, 10.7367450, 0, 213.55, 203.22, 4.95, 352.73, 459, 332, 32906
51200, 1, 7, 59.9630470, 10.7367450, 0, 213.55, 203.22, 4.95, 352.73, 500, 404, 33007
51300, 1, 6, 59.9630550, 10.7367410, 0, 213.55, 203.26, 4.95, 351.53, 532, 389, 33114
51400, 1, 6, 59.9630550, 10.7367410, 0, 213.73, 203.26, 4.95, 351.53, 545, 366, 33208
51500, 1, 6, 59.9630660, 10.7367370, 0, 213.81, 203.3, 5.59, 351.02, 577, 307, 33297
51600, 1, 6, 59.9630660, 10.7367370, 0, 213.73, 203.3, 5.59, 351.02, 591, 288, 33354
51700, 1, 6, 59.9630660, 10.7367370, 0, 213.9, 203.3, 5.59, 351.02, 694, 276, 33449
51800, 1, 6, 59.9630780, 10.7367350, 0, 213.81, 203.34, 5.11, 350.46, 800, 272, 33579
51900, 1, 6, 59.9630780, 10.7367350, 0, 213.73, 203.34, 5.11, 350.46, 971, 240, 33785
52000, 1, 6, 59.9630930, 10.7367300, 0, 213.64, 203.39, 5.14, 350.29, 1071, 170, 34016
52100, 1, 6, 59.9630930, 10.7367300, 0, 213.64, 203.39, 5.14, 350.29, 1103, 179, 34209
52200, 1, 6, 59.9630930, 10.7367300, 0, 213.46, 203.39, 5.14, 350.29, 1226, 228, 34422
52300, 1, 6, 59.9631040, 10.7367270, 0, 213.55, 203.44, 4.79, 2.21, 1300, 250, 34667
52400, 1, 6, 59.9631040, 10.7367270, 0, 213.55, 203.44, 4.79, 2.21, 1437, 229, 34944
52500, 1, 6, 59.9631120, 10.7367270, 0, 213.81, 203.52, 4.77, 1.38, 1532, 231, 35271
52600, 1, 6, 59.9631120, 10.7367270, 0, 213.9, 203.52, 4.77, 1.38, 1486, 268, 35548
52700, 1, 6, 59.9631120, 10.7367270, 0, 213.81, 203.52, 4.77, 1.38, 1477, 276, 35789
52800, 1, 6, 59.9631230, 10.7367280, 0, 213.73, 203.6, 4.75, 1.38, 1584, 372, 127
52900, 1, 6, 59.9631230, 10.7367280, 0, 213.73, 203.6, 4.75, 1.38, 1592, 369, 486
53000, 1, 6, 59.9631350, 10.7367280, 0, 213.55, 203.69, 4.54, 2.83, 1556, 320, 796
53100, 1, 6, 59.9631350, 10.7367280, 0, 213.55, 203.69, 4.54, 2.83, 1503, 397, 1035
53200, 1, 6, 59.9631350, 10.7367280, 0, 213.46, 203.69, 4.54, 2.83, 1612, 442, 1298
53300, 1, 6, 59.9631420, 10.7367320, 0, 213.64, 203.81, 4.82, 5.95, 1692, 501, 1661
53400, 1, 6, 59.9631420, 10.7367320, 0, 213.64, 203.81, 4.82, 5.95, 1695, 609, 1976
53500, 1, 6, 59.9631420, 10.7367320, 0, 213.46, 203.81, 4.82, 5.95, 1704, 642, 2321
53600, 1, 7, 59.9631540, 10.7367450, 0, 213.37, 203.94, 5.08, 9.27, 1741, 641, 2655
53700, 1, 7, 59.9631540, 10.7367450, 0, 213.37, 203.94, 5.08, 9.27, 1740, 644, 2973
53800, 1, 7, 59.9631610, 10.7367600, 0, 213.37, 204.1, 5.11, 12.19, 1800, 676, 3326
53900, 1, 7, 59.9631610, 10.7367600, 0, 213.37, 204.1, 5.11, 12.19, 1827, 661, 3731
54000, 1, 7, 59.9631610, 10.7367600, 0, 213.46, 204.1, 5.11, 12.19, 1756, 623, 4114
54100, 1, 7, 59.9631690, 10.7367730, 0, 213.46, 204.27, 4.42, 13.47, 1699, 706, 4480
54200, 1, 7, 59.9631690, 10.7367730, 0, 213.46, 204.27, 4.42, 13.47, 1660, 845, 4851
54300, 1, 7, 59.9631810, 10.7367810, 0, 213.46, 204.5, 4.07, 15.59, 1551, 801, 5171
54400, 1, 7, 59.9631810, 10.7367810, 0, 213.46, 204.5, 4.07, 15.59, 1399, 730, 5425
54500, 1, 7, 59.9631810, 10.7367810, 0, 213.55, 204.5, 4.07, 15.59, 1246, 802, 5621
54600, 1, 7, 59.9631880, 10.7367880, 0, 213.55, 204.74, 4.39, 17.62, 1118, 900, 5832
54700, 1, 7, 59.9631880, 10.7367880, 0, 213.46, 204.74, 4.39, 17.62, 1008, 893, 6043
54800, 1, 7, 59.9631920, 10.7368010, 0, 213.55, 204.97, 3.94, 19.27, 860, 884, 6185
54900, 1, 7, 59.9631920, 10.7368010, 0, 213.55, 204.97, 3.94, 19.27, 799, 853, 6396
55000, 1, 7, 59.9631920, 10.7368010, 0, 213.55, 204.97, 3.94, 19.27, 579, 866, 6495
55100, 1, 7, 59.9632000, 10.7368120, 0, 213.55, 205.18, 3.22, 20.72, 509, 986, 6643
55200, 1, 7, 59.9632000, 10.7368120, 0, 213.64, 205.18, 3.22, 20.72, 384, 1014, 6679
55300, 1, 7, 59.9632110, 10.7368170, 0, 213.73, 205.39, 3.42, 45.35, 258, 971, 6668
55400, 1, 7, 59.9632110, 10.7368170, 0, 213.81, 205.39, 3.42, 45.35, 194, 978, 6639
55500, 1, 7, 59.9632110, 10.7368170, 0, 213.81, 205.39, 3.42, 45.35, 108, 961, 6588
55600, 1, 7, 59.9632110, 10.7368310, 0, 213.73, 205.61, 3.1, 48.08, 99, 952, 6590
55700, 1, 7, 59.9632110, 10.7368310, 0, 213.73, 205.61, 3.1, 48.08, -14, 965, 6566
55800, 1, 7, 59.9632190, 10.7368400, 0, 213.73, 205.86, 3.21, 51.73, -67, 944, 6495
55900, 1, 7, 59.9632190, 10.7368400, 0, 213.73, 205.86, 3.21, 51.73, -43, 908, 6465
56000, 1, 7, 59.9632190, 10.7368400, 0, 213.73, 205.86, 3.21, 51.73, -25, 882, 6499
56100, 1, 7, 59.9632260, 10.7368510, 0, 213.73, 206.13, 2.49, 51.03, -42, 885, 6490
56200, 1, 7, 59.9632260, 10.7368510, 0, 213.73, 206.13, 2.49, 51.03, -33, 932, 6486
56300, 1, 6, 59.9632190, 10.7368710, 0, 213.73, 206.87, 2, 53.33, -23, 1002, 6466
56400, 1, 6, 59.9632190, 10.7368710, 0, 213.73, 206.87, 2, 53.33, -25, 1042, 6412
56500, 1, 6, 59.9632190, 10.7368710, 0, 213.73, 206.87, 2, 53.33, -18, 1040, 6329
56600, 1, 6, 59.9632190, 10.7368860, 0, 213.73, 207.48, 2.04, 55.75, 33, 1031, 6286
56700, 1, 6, 59.9632190, 10.7368860, 0, 213.9, 207.48, 2.04, 55.75, 77, 1021, 6312
56800, 1, 6, 59.9632190, 10.7369000, 0, 213.9, 208.02, 2.16, 58.19, 11, 995, 6285
56900, 1, 6, 59.9632190, 10.7369000, 0, 213.9, 208.02, 2.16, 58.19, 0, 989, 6269
57000, 1, 6, 59.9632190, 10.7369000, 0, 213.99, 208.02, 2.16, 58.19, 0, 963, 6300
57100, 1, 7, 59.9632260, 10.7369180, 0, 214.17, 208.33, 2.41, 66.17, -69, 884, 6273
57200, 1, 7, 59.9632260, 10.7369180, 0, 214.17, 208.33, 2.41, 66.17, -70, 813, 6233
57300, 1, 7, 59.9632300, 10.7369380, 0, 214.26, 208.72, 2.64, 63.56, -31, 798, 6181
57400, 1, 7, 59.9632300, 10.7369380, 0, 214.35, 208.72, 2.64, 63.56, 6, 760, 6189
57500, 1, 7, 59.9632300, 10.7369380, 0, 214.35, 208.72, 2.64, 63.56, 11, 698, 6203
57600, 1, 7, 59.9632300, 10.7369600, 0, 214.35, 209.31, 2.44, 63.79, -47, 679, 6163
57700, 1, 7, 59.9632300, 10.7369600, 0, 214.44, 209.31, 2.44, 63.79, -89, 625, 6090
57800, 1, 7, 59.9632300, 10.7369880, 0, 214.44, 209.87, 2.1, 64.59, -85, 614, 6028
57900, 1, 7, 59.9632300, 10.7369880, 0, 214.44, 209.87, 2.1, 64.59, -54, 668, 5998
58000, 1, 7, 59.9632300, 10.7369880, 0, 214.53, 209.87, 2.1, 64.59, -15, 686, 5975
58100, 1, 7, 59.9632380, 10.7370110, 0, 214.61, 210.22, 2.24, 70.61, 85, 615, 6053
58200, 1, 7, 59.9632380, 10.7370110, 0, 214.61, 210.22, 2.24, 70.61, 22, 583, 6095
58300, 1, 7, 59.9632380, 10.7370360, 0, 214.61, 210.64, 2.22, 73.08, 37, 615, 6126
58400, 1, 7, 59.9632380, 10.7370360, 0, 214.7, 210.64, 2.22, 73.08, 46, 614, 6117
58500, 1, 7, 59.9632380, 10.7370360, 0, 214.7, 210.64, 2.22, 73.08, 40, 571, 6090
58600, 1, 7, 59.9632450, 10.7370600, 0, 214.7, 210.97, 2.22, 73.35, 101, 546, 6090
58700, 1, 7, 59.9632450, 10.7370600, 0, 214.7, 210.97, 2.22, 73.35, 94, 513, 6089
58800, 1, 7, 59.9632450, 10.7370810, 0, 214.79, 211.44, 2.39, 73.23, 106, 514, 6111
58900, 1, 7, 59.9632450, 10.7370810, 0, 214.88, 211.44, 2.39, 73.23, 73, 485, 6152
59000, 1, 7, 59.9632450, 10.7370810, 0, 214.88, 211.44, 2.39, 73.23, 48, 439, 6220
59100, 1, 7, 59.9632380, 10.7371040, 0, 214.97, 212.06, 2.8, 74.85, -22, 427, 6255
59200, 1, 7, 59.9632380, 10.7371040, 0, 214.97, 212.06, 2.8, 74.85, -83, 362, 6300
59300, 1, 7, 59.9632300, 10.7371360, 0, 215.06, 212.59, 3.45, 78.15, -130, 295, 6294
59400, 1, 7, 59.9632300, 10.7371360, 0, 215.06, 212.59, 3.45, 78.15, -117, 258, 6303
59500, 1, 7, 59.9632300, 10.7371360, 0, 215.06, 212.59, 3.45, 78.15, -88, 189, 6334
59600, 1, 7, 59.9632260, 10.7371640, 0, 215.15, 213.01, 3.56, 81.5, -89, 168, 6360
59700, 1, 7, 59.9632260, 10.7371640, 0, 215.15, 213.01, 3.56, 81.5, -80, 112, 6372
59800, 1, 7, 59.9632260, 10.7371850, 0, 215.06, 213.44, 3.33, 84.73, -73, 86, 6380
59900, 1, 7, 59.9632260, 10.7371850, 0, 215.15, 213.44, 3.33, 84.73, -51, 148, 6421
60000, 1, 7, 59.9632260, 10.7371850, 0, 215.15, 213.44, 3.33, 84.73, -37, 134, 6462
60100, 1, 7, 59.9632190, 10.7372090, 0, 215.06, 214.06, 3.32, 98.87, -28, 135, 6525
60200, 1, 7, 59.9632190, 10.7372090, 0, 214.97, 214.06, 3.32, 98.87, -20, 114, 6610
60300, 1, 7, 59.9632110, 10.7372310, 0, 214.97, 214.87, 3.56, 90.07, -65, 69, 6685
60400, 1, 7, 59.9632110, 10.7372310, 0, 214.97, 214.87, 3.56, 90.07, -68, 75, 6720
60500, 1, 7, 59.9632110, 10.7372310, 0, 215.15, 214.87, 3.56, 90.07, -38, 87, 6748
60600, 1, 7, 59.9632110, 10.7372530, 0, 215.24, 215.65, 3.67, 91.31, -10, 74, 6792
60700, 1, 7, 59.9632110, 10.7372530, 0, 215.32, 215.65, 3.67, 91.31, -26, 54, 6784
60800, 1, 7, 59.9632110, 10.7372750, 0, 215.32, 216.39, 4.02, 92.15, -7, 31, 6769
60900, 1, 7, 59.9632110, 10.7372750, 0, 215.32, 216.39, 4.02, 92.15, 1, -2, 6769
61000, 1, 7, 59.9632110, 10.7372750, 0, 215.24, 216.39, 4.02, 92.15, -29, -4, 6828
61100, 1, 7, 59.9632110, 10.7372960, 0, 215.24, 217.09, 3.9, 93.58, -55, 0, 6896
61200, 1, 7, 59.9632110, 10.7372960, 0, 215.32, 217.09, 3.9, 93.58, -103, -13, 6957
61300, 1, 8, 59.9632070, 10.7373130, 0, 215.32, 217.8, 4.33, 94.67, -85, -49, 7027
61400, 1, 8, 59.9632070, 10.7373130, 0, 215.41, 217.8, 4.33, 94.67, -110, -66, 7064
61500, 1, 8, 59.9632070, 10.7373130, 0, 215.41, 217.8, 4.33, 94.67, -55, -133, 7090
61600, 1, 8, 59.9632070, 10.7373320, 0, 215.5, 218.5, 4.32, 97.41, 11, -128, 7153
61700, 1, 8, 59.9632070, 10.7373320, 0, 215.59, 218.5, 4.32, 97.41, 19, -117, 7203
61800, 1, 8, 59.9632070, 10.7373510, 0, 215.86, 219.22, 4.62, 98.48, -3, -177, 7207
61900, 1, 8, 59.9632070, 10.7373510, 0, 215.86, 219.22, 4.62, 98.48, 39, -183, 7247
62000, 1, 8, 59.9632070, 10.7373510, 0, 215.77, 219.22, 4.62, 98.48, 53, -176, 7299
62100, 1, 8, 59.9632070, 10.7373710, 0, 215.68, 219.93, 5.07, 99.49, 19, -235, 7406
62200, 1, 8, 59.9632070, 10.7373710, 0, 215.77, 219.93, 5.07, 99.49, -81, -253, 7444
62300, 1, 8, 59.9632000, 10.7373950, 0, 215.86, 220.64, 5.83, 99.91, -100, -312, 7503
62400, 1, 8, 59.9632000, 10.7373950, 0, 215.86, 220.64, 5.83, 99.91, -171, -383, 7545
62500, 1, 8, 59.9632000, 10.7373950, 0, 215.86, 220.64, 5.83, 99.91, -196, -429, 7569
62600, 1, 8, 59.9632000, 10.7374200, 0, 215.86, 221.32, 5.7, 101.47, -158, -441, 7596
62700, 1, 8, 59.9632000, 10.7374200, 0, 215.86, 221.32, 5.7, 101.47, -80, -401, 7668
62800, 1, 8, 59.9632000, 10.7374450, 0, 215.86, 221.98, 5.44, 102.09, -73, -373, 7756
62900, 1, 8, 59.9632000, 10.7374450, 0, 215.77, 221.98, 5.44, 102.09, -141, -326, 7765
63000, 1, 8, 59.9632000, 10.7374450, 0, 215.77, 221.98, 5.44, 102.09, -125, -319, 7787
63100, 1, 8, 59.9631920, 10.7374680, 0, 215.86, 222.63, 5.75, 104.19, -155, -316, 7803
63200, 1, 8, 59.9631920, 10.7374680, 0, 215.86, 222.63, 5.75, 104.19, -145, -261, 7844
63300, 1, 8, 59.9631880, 10.7374930, 0, 215.86, 223.28, 6.36, 105.82, -158, -295, 7851
63400, 1, 8, 59.9631880, 10.7374930, 0, 215.95, 223.28, 6.36, 105.82, -149, -380, 7881
63500, 1, 8, 59.9631880, 10.7374930, 0, 216.04, 223.28, 6.36, 105.82, -128, -406, 7888
63600, 1, 8, 59.9631880, 10.7375210, 0, 216.04, 223.9, 6.03, 107.74, -36, -367, 7942
63700, 1, 8, 59.9631880, 10.7375210, 0, 216.12, 223.9, 6.03, 107.74, 14, -335, 7996
63800, 1, 8, 59.9631810, 10.7375460, 0, 216.21, 224.52, 5.65, 108.96, 1, -267, 8006
63900, 1, 8, 59.9631810, 10.7375460, 0, 216.3, 224.52, 5.65, 108.96, 46, -211, 8032
64000, 1, 8, 59.9631810, 10.7375460, 0, 216.3, 224.52, 5.65, 108.96, 76, -181, 8090
64100, 1, 8, 59.9631810, 10.7375700, 0, 216.39, 225.14, 6.54, 108.83, 61, -206, 8132
64200, 1, 8, 59.9631810, 10.7375700, 0, 216.39, 225.14, 6.54, 108.83, 45, -185, 8186
64300, 1, 8, 59.9631730, 10.7375980, 0, 216.39, 225.74, 6.44, 108.04, 13, -148, 8228
64400, 1, 8, 59.9631730, 10.7375980, 0, 216.48, 225.74, 6.44, 108.04, -39, -152, 8250
64500, 1, 8, 59.9631730, 10.7375980, 0, 216.48, 225.74, 6.44, 108.04, -50, -178, 8244
64600, 1, 8, 59.9631690, 10.7376260, 0, 216.48, 226.35, 6.3, 107.98, 4, -169, 8265
64700, 1, 8, 59.9631690, 10.7376260, 0, 216.39, 226.35, 6.3, 107.98, 22, -127, 8278
64800, 1, 8, 59.9631690, 10.7376530, 0, 216.48, 226.95, 5.78, 108.6, 63, -71, 8301
64900, 1, 8, 59.9631690, 10.7376530, 0, 216.39, 226.95, 5.78, 108.6, 49, -18, 8302
65000, 1, 8, 59.9631690, 10.7376530, 0, 216.39, 226.95, 5.78, 108.6, 50, -29, 8289
65100, 1, 8, 59.9631610, 10.7376760, 0, 216.48, 227.55, 7.32, 103.36, 55, -166, 8279
65200, 1, 8, 59.9631610, 10.7376760, 0, 216.57, 227.55, 7.32, 103.36, 91, -154, 8309
65300, 1, 7, 59.9631540, 10.7377080, 0, 216.57, 228.14, 6.29, 105.57, 142, -78, 8345
65400, 1, 7, 59.9631540, 10.7377080, 0, 216.57, 228.14, 6.29, 105.57, 217, -98, 8426
65500, 1, 7, 59.9631540, 10.7377080, 0, 216.48, 228.14, 6.29, 105.57, 202, 28, 8508
65600, 1, 7, 59.9631540, 10.7377360, 0, 216.39, 228.63, 5.25, 108.68, 122, -6, 8553
65700, 1, 7, 59.9631540, 10.7377360, 0, 216.39, 228.63, 5.25, 108.68, 56, 70, 8573
65800, 1, 7, 59.9631500, 10.7377590, 0, 216.21, 229.06, 4.96, 107.73, -53, 201, 8625
65900, 1, 7, 59.9631500, 10.7377590, 0, 216.21, 229.06, 4.96, 107.73, -214, 241, 8468
66000, 1, 7, 59.9631500, 10.7377590, 0, 216.04, 229.06, 4.96, 107.73, -252, 215, 8309
66100, 1, 7, 59.9631500, 10.7377800, 0, 215.95, 229.45, 6.04, 104.32, -149, 261, 8296
66200, 1, 7, 59.9631500, 10.7377800, 0, 215.86, 229.45, 6.04, 104.32, -107, 176, 8362
66300, 1, 7, 59.9631420, 10.7378060, 0, 215.86, 229.78, 7.41, 101.93, -180, 47, 8284
66400, 1, 7, 59.9631420, 10.7378060, 0, 215.86, 229.78, 7.41, 101.93, -196, -27, 8224
66500, 1, 7, 59.9631420, 10.7378060, 0, 215.86, 229.78, 7.41, 101.93, -191, -129, 8159
66600, 1, 7, 59.9631420, 10.7378390, 0, 215.77, 230.06, 7.33, 102.04, -163, -118, 8131
66700, 1, 7, 59.9631420, 10.7378390, 0, 215.77, 230.06, 7.33, 102.04, -131, -143, 8139
66800, 1, 7, 59.9631350, 10.7378700, 0, 215.59, 230.31, 7.19, 99.75, -123, -185, 8109
66900, 1, 7, 59.9631350, 10.7378700, 0, 215.59, 230.31, 7.19, 99.75, -53, -206, 8144
67000, 1, 7, 59.9631350, 10.7378700, 0, 215.59, 230.31, 7.19, 99.75, -45, -213, 8166
67100, 1, 7, 59.9631350, 10.7379010, 0, 215.41, 230.54, 6.45, 99.71, 0, -200, 8191
67200, 1, 7, 59.9631350, 10.7379010, 0, 215.59, 230.54, 6.45, 99.71, -45, -151, 8169
67300, 1, 7, 59.9631310, 10.7379290, 0, 215.59, 230.75, 5.91, 100.77, 12, -96, 8183
67400, 1, 7, 59.9631310, 10.7379290, 0, 215.86, 230.75, 5.91, 100.77, -14, -28, 8164
67500, 1, 7, 59.9631310, 10.7379290, 0, 215.77, 230.75, 5.91, 100.77, 42, 0, 8182
67600, 1, 8, 59.9631310, 10.7379560, 0, 215.5, 230.95, 6.27, 96.88, 65, -39, 8199
67700, 1, 8, 59.9631310, 10.7379560, 0, 215.59, 230.95, 6.27, 96.88, 77, -39, 8228
67800, 1, 8, 59.9631230, 10.7379850, 0, 215.59, 231.14, 7.37, 94.83, 41, -95, 8213
67900, 1, 8, 59.9631230, 10.7379850, 0, 215.59, 231.14, 7.37, 94.83, 72, -213, 8244
68000, 1, 8, 59.9631230, 10.7379850, 0, 215.5, 231.14, 7.37, 94.83, 39, -248, 8240
68100, 1, 8, 59.9631230, 10.7380160, 0, 215.5, 231.33, 7.65, 97.91, 73, -253, 8284
68200, 1, 8, 59.9631230, 10.7380160, 0, 215.41, 231.33, 7.65, 97.91, 25, -305, 8273
68300, 1, 8, 59.9631230, 10.7380510, 0, 215.41, 231.5, 6.85, 100.77, 56, -277, 8275
68400, 1, 8, 59.9631230, 10.7380510, 0, 215.41, 231.5, 6.85, 100.77, 104, -248, 8323
68500, 1, 8, 59.9631230, 10.7380510, 0, 215.41, 231.5, 6.85, 100.77, 85, -262, 8362
68600, 1, 8, 59.9631160, 10.7380810, 0, 215.41, 231.69, 7, 101.64, 67, -212, 8386
68700, 1, 8, 59.9631160, 10.7380810, 0, 215.41, 231.69, 7, 101.64, 9, -182, 8371
68800, 1, 8, 59.9631160, 10.7381110, 0, 215.41, 231.87, 7.27, 101.92, 75, -207, 8428
68900, 1, 8, 59.9631160, 10.7381110, 0, 215.32, 231.87, 7.27, 101.92, -14, -205, 8411
69000, 1, 8, 59.9631160, 10.7381110, 0, 215.41, 231.87, 7.27, 101.92, -21, -188, 8397
69100, 1, 8, 59.9631120, 10.7381430, 0, 215.24, 232.04, 6.68, 104.45, -10, -158, 8376
69200, 1, 8, 59.9631120, 10.7381430, 0, 215.24, 232.04, 6.68, 104.45, 31, -100, 8415
69300, 1, 8, 59.9631120, 10.7381720, 0, 215.32, 232.22, 6.66, 104.94, 14, -112, 8430
69400, 1, 8, 59.9631120, 10.7381720, 0, 215.5, 232.22, 6.66, 104.94, -17, -91, 8424
69500, 1, 8, 59.9631120, 10.7381720, 0, 215.5, 232.22, 6.66, 104.94, -51, -23, 8365
69600, 1, 8, 59.9631040, 10.7382010, 0, 215.41, 232.41, 5.46, 104.76, -6, 46, 8330
69700, 1, 8, 59.9631040, 10.7382010, 0, 215.32, 232.41, 5.46, 104.76, 47, 106, 8328
69800, 1, 8, 59.9631040, 10.7382250, 0, 215.15, 232.65, 5.24, 103.86, 94, 199, 8352
69900, 1, 8, 59.9631040, 10.7382250, 0, 215.15, 232.65, 5.24, 103.86, 91, 217, 8351
70000, 1, 8, 59.9631040, 10.7382250, 0, 215.15, 232.65, 5.24, 103.86, 133, 272, 8376
70100, 1, 8, 59.9630970, 10.7382480, 0, 215.06, 232.91, 5.53, 102.64, 129, 266, 8399
70200, 1, 8, 59.9630970, 10.7382480, 0, 214.88, 232.91, 5.53, 102.64, 95, 208, 8395
