time, fix, sats, latitute, longitude, sonar, alt, gps_alt, speed, CRS, roll, pitch, yaw
0, 1, 4, 59.9631350, 10.7263600, 0, 182.75, 208.82, 0.14, 170.25, -24, -24, 1172
1000, 1, 4, 59.9631500, 10.7263530, 0, 182.67, 208.74, 0.19, 170.25, -25, -29, 1167
2000, 1, 4, 59.9631540, 10.7263410, 0, 182.75, 208.64, 0.26, 170.25, -24, -43, 1171
3000, 1, 4, 59.9631610, 10.7263450, 0, 182.83, 208.65, 0.27, 170.25, -388, -199, 1133
4000, 1, 4, 59.9631690, 10.7263450, 0, 183.44, 208.68, 0.28, 323.26, -181, 165, 777
5000, 1, 4, 59.9631690, 10.7263400, 0, 183.7, 208.68, 0.33, 327, 74, 473, 730
6000, 1, 4, 59.9631730, 10.7263370, 0, 183.61, 208.89, 0.37, 331.74, 196, 350, 35940
7000, 1, 4, 59.9631730, 10.7263410, 0, 183.61, 208.73, 0.43, 330.46, 479, 170, 33784
8000, 0, 3, 59.9631730, 10.7263410, 0, 183.78, 208.56, 0.4, 324.25, 345, 146, 29753
9000, 1, 4, 59.9631690, 10.7263430, 0, 183.87, 208.01, 0.19, 320.9, 702, 586, 20786
10000, 1, 4, 59.9631690, 10.7263460, 0, 183.95, 207.67, 0.11, 320.9, -170, 1000, 18038
11000, 1, 4, 59.9631690, 10.7263430, 0, 184.22, 207.38, 0.05, 320.9, 8903, -901, 18976
12000, 1, 4, 59.9631690, 10.7263330, 0, 184.22, 207.25, 0.07, 320.9, 9095, -848, 18677
13000, 1, 4, 59.9631690, 10.7263210, 0, 184.04, 207.18, 0.12, 320.9, -277, -164, 17709
14000, 1, 4, 59.9631690, 10.7263080, 0, 183.87, 207.03, 0.13, 320.9, 183, -295, 17667
15000, 1, 4, 59.9631610, 10.7262950, 0, 184.3, 206.96, 0.13, 320.9, 969, 4182, 20161
16000, 1, 4, 59.9631540, 10.7262880, 0, 184.04, 206.96, 0.14, 320.9, -1299, 4776, 17217
17000, 1, 4, 59.9631500, 10.7262810, 0, 184.13, 206.94, 0.13, 320.9, -133, 6541, 19211
18000, 1, 4, 59.9631540, 10.7262650, 0, 184.13, 207.06, 0.09, 320.9, -254, 6110, 18915
19000, 1, 4, 59.9631540, 10.7262600, 0, 183.7, 207.14, 0.11, 320.9, 548, 5138, 18266
20000, 1, 4, 59.9631610, 10.7262660, 0, 183.87, 207.18, 0.11, 320.9, 286, 4389, 17981
21000, 1, 4, 59.9631690, 10.7262730, 0, 183.95, 207.21, 0.24, 320.9, 106, 4137, 17649
22000, 1, 4, 59.9631730, 10.7262720, 0, 184.04, 207.25, 0.25, 320.9, 301, 4058, 18510
23000, 1, 4, 59.9631690, 10.7262860, 0, 183.95, 207.27, 0.27, 54.73, -479, 3019, 13735
24000, 1, 4, 59.9631690, 10.7262860, 0, 185.34, 207.28, 0.31, 54.4, 201, 2039, 19304
25000, 1, 4, 59.9631230, 10.7262600, 0, 187.15, 207.29, 0.85, 204.94, -644, 2582, 18310
26000, 1, 4, 59.9630970, 10.7262500, 0, 189.4, 207.31, 0.99, 206.42, 1131, 2628, 19458
27000, 0, 3, 59.9630850, 10.7262500, 0, 193.3, 207.16, 1.25, 205.76, 802, 2850, 20674
28000, 0, 3, 59.9630850, 10.7262500, 0, 198.06, 206.93, 2.08, 211.34, -2616, 2952, 21170
29000, 1, 5, 59.9629440, 10.7261350, 0, 203.52, 208.89, 14.72, 210.7, -5866, 3023, 17253
30000, 1, 5, 59.9627950, 10.7259710, 0, 207.85, 212.07, 12.27, 211.57, -4356, 1837, 12613
31000, 1, 5, 59.9626690, 10.7258350, 0, 210.89, 214.23, 12.32, 208.84, -5669, 1702, 7857
32000, 0, 3, 59.9626690, 10.7258350, 0, 212.71, 215.43, 12.21, 201.01, -1102, 1750, 5081
33000, 0, 3, 59.9626690, 10.7258350, 0, 214.27, 216.17, 11.74, 197.4, -1439, 2148, 4232
34000, 0, 3, 59.9626690, 10.7258350, 0, 216, 216.97, 10.41, 210.04, 1129, 1624, 3422
35000, 0, 3, 59.9626690, 10.7258350, 0, 217.13, 217.98, 10.05, 230.89, -374, 1715, 3411
36000, 0, 3, 59.9626690, 10.7258350, 0, 217.83, 218.69, 11.43, 254.24, 1887, 1454, 3160
37000, 0, 3, 59.9626690, 10.7258350, 0, 218.26, 218.66, 12.31, 267.14, 1938, 1632, 4071
38000, 1, 5, 59.9625930, 10.7259610, 0, 220.43, 220.1, 9.32, 11.99, 1840, 1862, 5141
39000, 1, 5, 59.9628410, 10.7262930, 0, 223.99, 220.92, 10.49, 21.43, -472, 1862, 5300
40000, 1, 5, 59.9629440, 10.7267000, 0, 227.64, 220.86, 10.04, 25.74, 501, 1143, 6195
41000, 1, 5, 59.9630280, 10.7268970, 0, 230.86, 221.15, 11.37, 22.97, -1419, 1140, 6266
42000, 1, 5, 59.9631230, 10.7269730, 0, 233.29, 221.71, 11.64, 19.91, -2264, 649, 5276
43000, 1, 5, 59.9632530, 10.7271000, 0, 235.2, 221.68, 12.11, 14.81, -2360, 1251, 3951
44000, 1, 5, 59.9633870, 10.7270960, 0, 237.81, 222.06, 12.23, 344.75, -2657, 1352, 2184
45000, 1, 5, 59.9635010, 10.7269720, 0, 240.16, 223.48, 13.17, 330.32, 402, 239, 1814
46000, 1, 5, 59.9636230, 10.7267900, 0, 241.47, 225.94, 15.68, 325.38, 740, 393, 956
47000, 1, 5, 59.9636920, 10.7265560, 0, 243.3, 229.81, 15.7, 311.25, 571, 475, 123
48000, 1, 5, 59.9637950, 10.7262970, 0, 245.91, 232.23, 16.18, 307.42, 516, 652, 35295
49000, 1, 5, 59.9639090, 10.7260400, 0, 248.96, 234.23, 16.06, 306.83, -2975, 1067, 33586
50000, 1, 5, 59.9640050, 10.7257750, 0, 251.92, 236.37, 15.27, 299.28, -4395, 675, 30345
51000, 1, 5, 59.9640660, 10.7255160, 0, 254.45, 238.55, 15.69, 289.85, -1901, 530, 27250
52000, 1, 5, 59.9640850, 10.7252510, 0, 256.01, 237.68, 14.72, 274.83, -2899, 1621, 24656
53000, 1, 5, 59.9640390, 10.7249980, 0, 258.72, 238.64, 14.27, 252.97, -4365, 1330, 20858
54000, 1, 5, 59.9639550, 10.7248280, 0, 260.46, 240.09, 13.01, 235.18, -620, 263, 18922
55000, 1, 5, 59.9638670, 10.7247060, 0, 260.2, 241.66, 11.45, 231.79, -830, 556, 18544
56000, 1, 5, 59.9637180, 10.7246810, 0, 258.11, 243.24, 10.64, 210.12, -158, 423, 17963
57000, 1, 5, 59.9635310, 10.7246580, 0, 256.54, 244.83, 12.28, 198.57, 1033, 441, 18125
58000, 1, 5, 59.9632720, 10.7245710, 0, 256.89, 244.2, 18.99, 194.11, 1428, -191, 19034
59000, 1, 5, 59.9630320, 10.7244480, 0, 258.54, 244.87, 21.44, 196.9, 800, -309, 20009
60000, 1, 5, 59.9628680, 10.7242960, 0, 261.77, 246.58, 21.11, 203.03, -529, -142, 19763
61000, 1, 5, 59.9627080, 10.7241330, 0, 264.91, 248.16, 19.06, 206.39, -27, -301, 19923
62000, 1, 5, 59.9625400, 10.7239880, 0, 266.83, 249.65, 18.68, 208.43, -2383, -392, 19073
63000, 1, 5, 59.9623600, 10.7238580, 0, 268.05, 251.27, 18.21, 203.98, -1947, 107, 18147
64000, 1, 5, 59.9621620, 10.7237750, 0, 269.36, 253.1, 19, 194, -2031, 576, 16998
65000, 1, 5, 59.9619790, 10.7237430, 0, 271.28, 254.11, 18.57, 183.6, -3203, 863, 15307
66000, 1, 5, 59.9618030, 10.7237850, 0, 273.82, 254.7, 18.26, 170.13, -1129, 1055, 14511
67000, 1, 5, 59.9616580, 10.7239050, 0, 276.96, 255.03, 18.26, 158.27, -3900, 1692, 12585
68000, 1, 5, 59.9615360, 10.7240920, 0, 280.55, 255.95, 17.24, 142.97, -6777, 758, 9432
69000, 1, 5, 59.9614640, 10.7243400, 0, 281.33, 256.54, 15.73, 122.52, -1876, -863, 8432
70000, 1, 5, 59.9614600, 10.7246760, 0, 280.11, 255.66, 19.4, 89.86, -299, -162, 8230
71000, 1, 5, 59.9614830, 10.7250530, 0, 279.58, 255.08, 19.68, 84.79, -2799, 57, 7927
72000, 1, 5, 59.9615170, 10.7254210, 0, 279.15, 255.68, 20.14, 76.61, -3098, -410, 6911
73000, 1, 5, 59.9615940, 10.7257430, 0, 278.45, 256.54, 20.09, 62.79, -2670, -565, 5816
74000, 1, 5, 59.9617040, 10.7259900, 0, 276.87, 257.4, 19.94, 49.7, 680, -817, 6111
75000, 1, 5, 59.9618300, 10.7262160, 0, 274.95, 258.04, 20.73, 43.01, 2485, -955, 7047
76000, 1, 5, 59.9619600, 10.7264630, 0, 273.03, 257.89, 21.77, 47.18, 1159, -560, 8159
77000, 1, 5, 59.9620670, 10.7267680, 0, 271.89, 258.07, 21.74, 57.59, 3442, -757, 9781
78000, 1, 5, 59.9621390, 10.7271030, 0, 270.67, 257.3, 21.7, 70.03, 4409, -88, 13066
79000, 1, 5, 59.9621390, 10.7274810, 0, 270.41, 256.65, 20.64, 89.37, 6049, 254, 17127
80000, 1, 5, 59.9620930, 10.7277960, 0, 271.98, 256.41, 15.65, 112.35, 4885, 1419, 22237
81000, 1, 5, 59.9619260, 10.7279560, 0, 273.9, 256.23, 16.28, 151.74, 4929, 2180, 26250
82000, 1, 5, 59.9616970, 10.7279550, 0, 277.49, 255.73, 20.37, 178.73, 6621, 941, 30070
83000, 1, 5, 59.9616510, 10.7276880, 0, 279.76, 255.39, 12.62, 234.86, 1528, 1499, 32345
84000, 1, 5, 59.9616620, 10.7274130, 0, 280.9, 255.17, 12.29, 273.18, 1023, 493, 31928
85000, 1, 5, 59.9617080, 10.7271700, 0, 280.11, 254.62, 14.49, 291.07, 573, -562, 32118
86000, 1, 4, 59.9618000, 10.7269050, 0, 276.79, 253.53, 16.62, 304.42, 604, -581, 32496
87000, 1, 4, 59.9619220, 10.7266200, 0, 272.07, 251.55, 18.32, 310.13, 17, -724, 32390
88000, 1, 4, 59.9620480, 10.7263360, 0, 268.93, 250.16, 19.19, 313.15, 121, -972, 32137
89000, 1, 4, 59.9621960, 10.7260480, 0, 266.57, 249.2, 19.8, 315.52, -871, -724, 31485
90000, 1, 4, 59.9623410, 10.7257450, 0, 265.35, 249.37, 21.32, 317.11, -1370, -907, 29944
91000, 1, 4, 59.9624560, 10.7254500, 0, 265.17, 249.6, 19.55, 310.44, -618, -371, 28732
92000, 1, 4, 59.9625740, 10.7251290, 0, 266.05, 249.61, 19.37, 305.12, -1156, 0, 27527
93000, 1, 4, 59.9626540, 10.7248360, 0, 267.09, 249.51, 18.03, 297.44, -1534, 457, 26085
94000, 1, 4, 59.9627000, 10.7245550, 0, 269.45, 250.04, 16.79, 287.16, -3377, 992, 24003
95000, 1, 4, 59.9627080, 10.7242660, 0, 272.59, 250.63, 15.83, 272.35, -2938, 1281, 20599
96000, 1, 4, 59.9626620, 10.7240120, 0, 276.18, 251.59, 14.63, 253.21, -3686, 2360, 17601
97000, 1, 4, 59.9625280, 10.7238360, 0, 280.37, 253.08, 15.51, 221.43, -5417, 2073, 13485
98000, 1, 4, 59.9623870, 10.7237290, 0, 283.43, 254.43, 13.93, 206.95, -3463, 1210, 10347
99000, 1, 4, 59.9622540, 10.7237800, 0, 284.83, 255.68, 10.78, 179.89, -2896, 1917, 8565
100000, 1, 4, 59.9621580, 10.7239610, 0, 284.31, 256.51, 10.48, 150.02, -1825, -55, 7111
101000, 1, 4, 59.9621010, 10.7242050, 0, 283.17, 257.08, 10.7, 126.39, -47, -2125, 6995
102000, 1, 4, 59.9620780, 10.7243450, 0, 278.88, 257.86, 8.17, 109.96, 734, -2120, 7519
103000, 1, 4, 59.9620670, 10.7244810, 0, 271.46, 258.64, 7.69, 92.61, -373, -1238, 8030
104000, 1, 4, 59.9620670, 10.7246250, 0, 262.21, 259.36, 10.3, 88.04, -2159, -1142, 6748
105000, 1, 4, 59.9620670, 10.7249160, 0, 255.14, 260.02, 15.96, 86.67, -2198, -580, 5277
106000, 1, 4, 59.9620590, 10.7253760, 0, 251.66, 260.49, 18.2, 90.05, -3137, -1307, 3813
107000, 1, 4, 59.9620860, 10.7258150, 0, 250, 261.39, 17.99, 81.69, -568, -1858, 3988
108000, 1, 4, 59.9621390, 10.7262530, 0, 248.35, 263.23, 15.92, 68.81, -2565, -854, 3479
109000, 1, 4, 59.9622000, 10.7265750, 0, 246.26, 265.37, 14.13, 54.93, -2563, -682, 2378
110000, 1, 4, 59.9622920, 10.7267760, 0, 243.12, 266.65, 14.16, 23.13, -1642, -1411, 1185
111000, 1, 5, 59.9624330, 10.7268080, 0, 238.16, 265.7, 15.59, 12.05, -1024, -1366, 888
112000, 1, 5, 59.9625970, 10.7268470, 0, 232.68, 263.62, 16.57, 5.66, -605, -1649, 821
113000, 1, 5, 59.9627720, 10.7268360, 0, 228.34, 260.86, 16.21, 357.6, 4, -1358, 862
114000, 1, 5, 59.9629330, 10.7268210, 0, 224.77, 257.35, 15.33, 354.97, 484, -1016, 1260
115000, 1, 5, 59.9630930, 10.7267920, 0, 221.91, 254.19, 14.94, 355.56, -3329, -331, 1022
116000, 1, 5, 59.9632300, 10.7267530, 0, 219.82, 252.29, 13.41, 343.94, -4777, -1556, 33810
117000, 1, 5, 59.9633710, 10.7266490, 0, 215.92, 251.01, 15.06, 336.61, -4909, -2346, 30646
118000, 1, 5, 59.9635120, 10.7264900, 0, 208.72, 249.96, 17.16, 330.52, -5841, -2821, 26848
119000, 1, 5, 59.9636540, 10.7262960, 0, 200.48, 249.02, 18.47, 325.71, -3281, -1116, 22042
120000, 1, 5, 59.9634900, 10.7261710, 0, 195.12, 247.24, 7.69, 250.08, 1497, 925, 20232
121000, 1, 5, 59.9633030, 10.7260910, 0, 194.6, 245.88, 19.05, 192.79, -162, 816, 20617
122000, 1, 5, 59.9631730, 10.7260200, 0, 195.38, 245.49, 15.26, 193.54, -2604, -72, 19001
123000, 1, 5, 59.9630130, 10.7259840, 0, 195.29, 245.61, 12, 189.27, -4155, 479, 15703
124000, 1, 5, 59.9628750, 10.7260250, 0, 195.12, 245.44, 10.53, 157.82, -5021, 1119, 10840
125000, 1, 5, 59.9627910, 10.7261430, 0, 194.6, 244.13, 11.6, 139.96, -4720, 145, 5488
126000, 1, 5, 59.9627270, 10.7262810, 0, 192.95, 243.12, 10.16, 132.24, -3048, 484, 2446
127000, 1, 5, 59.9626770, 10.7264000, 0, 191.31, 242.33, 6.12, 131.86, -1995, -232, 35213
128000, 1, 5, 59.9626620, 10.7264330, 0, 188.8, 240.98, 1.71, 149.01, 664, 2067, 553
129000, 1, 5, 59.9626810, 10.7264160, 0, 187.41, 240.46, 0.18, 149.01, 67, 1633, 40
130000, 1, 5, 59.9627650, 10.7263700, 0, 186.38, 238.96, 0.38, 149.01, -393, 429, 696
131000, 1, 5, 59.9629330, 10.7263630, 0, 185.08, 237.14, 7.29, 351.05, 86, -1002, 35849
132000, 1, 5, 59.9629940, 10.7263460, 0, 184.39, 236.52, 8.36, 353.62, -230, -1110, 35346
133000, 1, 5, 59.9630740, 10.7263280, 0, 183.52, 235.88, 7.41, 351.91, -682, -2389, 0
134000, 1, 5, 59.9631230, 10.7263130, 0, 182.92, 235.24, 2.5, 350.79, -334, -1228, 644
135000, 1, 4, 59.9631350, 10.7263080, 0, 182.83, 234.76, 0.9, 351.51, -113, 87, 723
136000, 1, 4, 59.9631420, 10.7263060, 0, 182.83, 234.07, 0.03, 351.43, -30, 85, 826
137000, 1, 4, 59.9631610, 10.7263010, 0, 182.58, 235.04, 0.17, 351.43, -7, -374, 941
138000, 1, 4, 59.9631610, 10.7262930, 0, 182.67, 234.33, 0.03, 351.43, -1, -568, 1070
139000, 1, 5, 59.9631610, 10.7262920, 0, 182.75, 234.04, 0.03, 351.43, 1, -668, 1200
