time, fix, sats, latitute, longitude, sonar, alt, gps_alt, speed, CRS, roll, pitch, yaw
0, 1, 4, 59.9631350, 10.7263600, 0, 182.75, 208.82, 0.14, 170.25, -24, -24, 1172
100, 1, 4, 59.9631350, 10.7263600, 0, 182.75, 208.82, 0.14, 170.25, -25, -23, 1171
200, 1, 4, 59.9631350, 10.7263600, 0, 182.67, 208.82, 0.14, 170.25, -25, -24, 1170
300, 1, 4, 59.9631350, 10.7263610, 0, 182.67, 208.79, 0.14, 170.25, -24, -23, 1169
400, 1, 4, 59.9631350, 10.7263610, 0, 182.67, 208.79, 0.14, 170.25, -24, -23, 1168
500, 1, 4, 59.9631420, 10.7263610, 0, 182.67, 208.75, 0.15, 170.25, -24, -23, 1168
600, 1, 4, 59.9631420, 10.7263610, 0, 182.67, 208.75, 0.15, 170.25, -24, -23, 1167
700, 1, 4, 59.9631420, 10.7263610, 0, 182.67, 208.75, 0.15, 170.25, -24, -24, 1166
800, 1, 4, 59.9631500, 10.7263580, 0, 182.67, 208.74, 0.17, 170.25, -24, -26, 1166
900, 1, 4, 59.9631500, 10.7263580, 0, 182.67, 208.74, 0.17, 170.25, -24, -27, 1166
1000, 1, 4, 59.9631500, 10.7263530, 0, 182.67, 208.74, 0.19, 170.25, -25, -29, 1167
1100, 1, 4, 59.9631500, 10.7263530, 0, 182.67, 208.74, 0.19, 170.25, -24, -31, 1168
1200, 1, 4, 59.9631500, 10.7263530, 0, 182.67, 208.74, 0.19, 170.25, -25, -32, 1169
1300, 1, 4, 59.9631540, 10.7263460, 0, 182.67, 208.72, 0.22, 170.25, -25, -35, 1170
1400, 1, 4, 59.9631540, 10.7263460, 0, 182.75, 208.72, 0.22, 170.25, -25, -37, 1170
1500, 1, 4, 59.9631540, 10.7263460, 0, 182.75, 208.69, 0.24, 170.25, -25, -39, 1170
1600, 1, 4, 59.9631540, 10.7263460, 0, 182.75, 208.69, 0.24, 170.25, -25, -40, 1171
1700, 1, 4, 59.9631540, 10.7263460, 0, 182.75, 208.69, 0.24, 170.25, -25, -42, 1171
1800, 1, 4, 59.9631540, 10.7263410, 0, 182.75, 208.67, 0.26, 170.25, -25, -44, 1171
1900, 1, 4, 59.9631540, 10.7263410, 0, 182.75, 208.67, 0.26, 170.25, -25, -44, 1171
2000, 1, 4, 59.9631540, 10.7263410, 0, 182.75, 208.64, 0.26, 170.25, -24, -43, 1171
2100, 1, 4, 59.9631540, 10.7263410, 0, 182.75, 208.64, 0.26, 170.25, -24, -42, 1170
2200, 1, 4, 59.9631540, 10.7263410, 0, 182.75, 208.64, 0.26, 170.25, -24, -42, 1171
2300, 1, 4, 59.9631610, 10.7263400, 0, 182.75, 208.63, 0.27, 170.25, -24, -41, 1171
2400, 1, 4, 59.9631610, 10.7263400, 0, 182.75, 208.63, 0.27, 170.25, -26, -40, 1170
2500, 1, 4, 59.9631610, 10.7263370, 0, 182.75, 208.62, 0.27, 170.25, -23, -38, 1169
2600, 1, 4, 59.9631610, 10.7263370, 0, 182.75, 208.62, 0.27, 170.25, -20, -40, 1169
2700, 1, 4, 59.9631610, 10.7263370, 0, 182.83, 208.62, 0.27, 170.25, -42, -48, 1166
2800, 1, 4, 59.9631610, 10.7263410, 0, 182.83, 208.64, 0.27, 170.25, -162, -204, 1159
2900, 1, 4, 59.9631610, 10.7263410, 0, 182.83, 208.64, 0.27, 170.25, -349, -436, 1170
3000, 1, 4, 59.9631610, 10.7263450, 0, 182.83, 208.65, 0.27, 170.25, -388, -199, 1133
3100, 1, 4, 59.9631610, 10.7263450, 0, 182.83, 208.65, 0.27, 170.25, -437, -199, 1047
3200, 1, 4, 59.9631610, 10.7263450, 0, 182.75, 208.65, 0.27, 170.25, -474, -344, 950
3300, 1, 4, 59.9631690, 10.7263430, 0, 182.83, 208.66, 0.26, 170.25, -505, -423, 909
3400, 1, 4, 59.9631690, 10.7263430, 0, 182.92, 208.66, 0.26, 170.25, -577, -453, 908
3500, 1, 4, 59.9631690, 10.7263430, 0, 183, 208.66, 0.26, 170.25, -648, -439, 887
3600, 1, 4, 59.9631690, 10.7263430, 0, 183, 208.66, 0.26, 170.25, -613, -464, 885
3700, 1, 4, 59.9631690, 10.7263430, 0, 183.09, 208.66, 0.26, 170.25, -460, -375, 869
3800, 1, 4, 59.9631690, 10.7263430, 0, 183.18, 208.68, 0.27, 170.25, -350, -184, 851
3900, 1, 4, 59.9631690, 10.7263430, 0, 183.35, 208.68, 0.27, 170.25, -272, -88, 810
4000, 1, 4, 59.9631690, 10.7263450, 0, 183.44, 208.68, 0.28, 323.26, -181, 165, 777
4100, 1, 4, 59.9631690, 10.7263450, 0, 183.52, 208.68, 0.28, 323.26, -139, 374, 748
4200, 1, 4, 59.9631690, 10.7263450, 0, 183.52, 208.68, 0.28, 323.26, -143, 391, 651
4300, 1, 4, 59.9631690, 10.7263430, 0, 183.52, 208.68, 0.29, 324.86, -25, 262, 627
4400, 1, 4, 59.9631690, 10.7263430, 0, 183.61, 208.68, 0.29, 324.86, 137, 78, 631
4500, 1, 4, 59.9631690, 10.7263410, 0, 183.61, 208.68, 0.3, 325.35, 183, 139, 619
4600, 1, 4, 59.9631690, 10.7263410, 0, 183.61, 208.68, 0.3, 325.35, 129, 242, 524
4700, 1, 4, 59.9631690, 10.7263410, 0, 183.7, 208.68, 0.3, 325.35, 156, 291, 457
4800, 1, 4, 59.9631690, 10.7263400, 0, 183.7, 208.68, 0.32, 326.37, 175, 354, 494
4900, 1, 4, 59.9631690, 10.7263400, 0, 183.7, 208.68, 0.32, 326.37, 136, 474, 590
5000, 1, 4, 59.9631690, 10.7263400, 0, 183.7, 208.68, 0.33, 327, 74, 473, 730
5100, 1, 4, 59.9631690, 10.7263400, 0, 183.7, 208.68, 0.33, 327, 71, 389, 916
5200, 1, 4, 59.9631690, 10.7263400, 0, 183.78, 208.68, 0.33, 327, 96, 354, 1094
5300, 1, 4, 59.9631690, 10.7263400, 0, 183.78, 208.71, 0.34, 328.68, 134, 324, 1168
5400, 1, 4, 59.9631690, 10.7263400, 0, 183.78, 208.71, 0.34, 328.68, 185, 350, 1116
5500, 1, 4, 59.9631730, 10.7263410, 0, 183.78, 208.72, 0.35, 334.39, 193, 429, 956
5600, 1, 4, 59.9631730, 10.7263410, 0, 183.87, 208.72, 0.35, 334.39, 120, 556, 732
5700, 1, 4, 59.9631730, 10.7263410, 0, 183.95, 208.72, 0.35, 334.39, 123, 403, 523
5800, 1, 4, 59.9631730, 10.7263400, 0, 183.78, 208.81, 0.36, 333.94, 153, 304, 289
5900, 1, 4, 59.9631730, 10.7263400, 0, 183.61, 208.81, 0.36, 333.94, 153, 367, 94
6000, 1, 4, 59.9631730, 10.7263370, 0, 183.61, 208.89, 0.37, 331.74, 196, 350, 35940
6100, 1, 4, 59.9631730, 10.7263370, 0, 183.61, 208.89, 0.37, 331.74, 256, 358, 35857
6200, 1, 4, 59.9631730, 10.7263370, 0, 183.61, 208.89, 0.37, 331.74, 270, 427, 35774
6300, 1, 4, 59.9631730, 10.7263430, 0, 183.61, 208.86, 0.38, 334.39, 178, 335, 35737
6400, 1, 4, 59.9631730, 10.7263430, 0, 183.61, 208.86, 0.38, 334.39, 148, 288, 35694
6500, 1, 4, 59.9631730, 10.7263430, 0, 183.52, 208.79, 0.4, 333.58, 190, 244, 35564
6600, 1, 4, 59.9631730, 10.7263430, 0, 183.52, 208.79, 0.4, 333.58, 248, 109, 35391
6700, 1, 4, 59.9631730, 10.7263430, 0, 183.61, 208.79, 0.4, 333.58, 289, 127, 35081
6800, 1, 4, 59.9631730, 10.7263430, 0, 183.61, 208.75, 0.41, 332.13, 324, 167, 34744
6900, 1, 4, 59.9631730, 10.7263430, 0, 183.61, 208.75, 0.41, 332.13, 404, 158, 34301
7000, 1, 4, 59.9631730, 10.7263410, 0, 183.61, 208.73, 0.43, 330.46, 479, 170, 33784
7100, 1, 4, 59.9631730, 10.7263410, 0, 183.61, 208.73, 0.43, 330.46, 455, 148, 33226
7200, 1, 4, 59.9631730, 10.7263410, 0, 183.61, 208.73, 0.43, 330.46, 508, 127, 32580
7300, 1, 4, 59.9631730, 10.7263410, 0, 183.7, 208.67, 0.44, 328.8, 538, 109, 32037
7400, 1, 4, 59.9631730, 10.7263410, 0, 183.7, 208.67, 0.44, 328.8, 507, 103, 31607
7500, 1, 4, 59.9631730, 10.7263410, 0, 183.7, 208.64, 0.44, 326.3, 488, 108, 31218
7600, 1, 4, 59.9631730, 10.7263410, 0, 183.7, 208.64, 0.44, 326.3, 460, 146, 30877
7700, 1, 4, 59.9631730, 10.7263410, 0, 183.7, 208.64, 0.44, 326.3, 370, 230, 30607
7800, 0, 3, 59.9631730, 10.7263410, 0, 183.7, 208.61, 0.42, 325.22, 231, 225, 30393
7900, 0, 3, 59.9631730, 10.7263410, 0, 183.78, 208.61, 0.42, 325.22, 228, 164, 30121
8000, 0, 3, 59.9631730, 10.7263410, 0, 183.78, 208.56, 0.4, 324.25, 345, 146, 29753
8100, 0, 3, 59.9631730, 10.7263410, 0, 183.78, 208.56, 0.4, 324.25, 464, 148, 29225
8200, 0, 3, 59.9631730, 10.7263410, 0, 183.78, 208.56, 0.4, 324.25, 610, 219, 28477
8300, 0, 3, 59.9631730, 10.7263410, 0, 183.78, 208.44, 0.32, 322.09, 691, 281, 27570
8400, 0, 3, 59.9631730, 10.7263410, 0, 183.78, 208.44, 0.32, 322.09, 735, 399, 26491
8500, 0, 3, 59.9631730, 10.7263410, 0, 183.78, 208.2, 0.32, 320.9, 803, 551, 25282
8600, 0, 3, 59.9631730, 10.7263410, 0, 183.78, 208.2, 0.32, 320.9, 857, 593, 24119
8700, 0, 3, 59.9631730, 10.7263410, 0, 183.78, 208.2, 0.32, 320.9, 910, 639, 23051
8800, 0, 3, 59.9631730, 10.7263410, 0, 183.87, 208.11, 0.3, 320.9, 950, 568, 22150
8900, 0, 3, 59.9631730, 10.7263410, 0, 183.87, 208.11, 0.3, 320.9, 868, 556, 21432
9000, 1, 4, 59.9631690, 10.7263430, 0, 183.87, 208.01, 0.19, 320.9, 702, 586, 20786
9100, 1, 4, 59.9631690, 10.7263430, 0, 183.87, 208.01, 0.19, 320.9, 570, 627, 20164
9200, 1, 4, 59.9631690, 10.7263430, 0, 183.87, 208.01, 0.19, 320.9, 473, 707, 19578
9300, 1, 4, 59.9631690, 10.7263430, 0, 183.87, 207.95, 0.17, 320.9, 348, 762, 19133
9400, 1, 4, 59.9631690, 10.7263430, 0, 183.87, 207.95, 0.17, 320.9, 214, 831, 18793
9500, 1, 4, 59.9631690, 10.7263430, 0, 183.78, 207.98, 0.16, 320.9, 87, 902, 18521
9600, 1, 4, 59.9631690, 10.7263430, 0, 183.87, 207.98, 0.16, 320.9, 8, 946, 18362
9700, 1, 4, 59.9631690, 10.7263430, 0, 183.87, 207.98, 0.16, 320.9, -29, 965, 18330
9800, 1, 4, 59.9631690, 10.7263430, 0, 183.95, 207.83, 0.14, 320.9, -81, 982, 18272
9900, 1, 4, 59.9631690, 10.7263430, 0, 183.95, 207.83, 0.14, 320.9, -131, 983, 18125
10000, 1, 4, 59.9631690, 10.7263460, 0, 183.95, 207.67, 0.11, 320.9, -170, 1000, 18038
10100, 1, 4, 59.9631690, 10.7263460, 0, 183.95, 207.67, 0.11, 320.9, -131, 1006, 17982
10200, 1, 4, 59.9631690, 10.7263460, 0, 183.95, 207.67, 0.11, 320.9, -121, 1048, 17964
10300, 1, 4, 59.9631690, 10.7263510, 0, 183.95, 207.55, 0.08, 320.9, -130, 1087, 17945
10400, 1, 4, 59.9631690, 10.7263510, 0, 183.95, 207.55, 0.08, 320.9, 39, 1208, 17961
10500, 1, 4, 59.9631690, 10.7263510, 0, 183.95, 207.48, 0.07, 320.9, 997, 847, 18367
10600, 1, 4, 59.9631690, 10.7263510, 0, 183.95, 207.48, 0.07, 320.9, 2926, 385, 19080
10700, 1, 4, 59.9631690, 10.7263510, 0, 183.95, 207.48, 0.07, 320.9, 5059, -384, 19433
10800, 1, 4, 59.9631690, 10.7263480, 0, 183.95, 207.45, 0.06, 320.9, 7021, -953, 19294
10900, 1, 4, 59.9631690, 10.7263480, 0, 184.13, 207.45, 0.06, 320.9, 8371, -1002, 19154
11000, 1, 4, 59.9631690, 10.7263430, 0, 184.22, 207.38, 0.05, 320.9, 8903, -901, 18976
11100, 1, 4, 59.9631690, 10.7263430, 0, 184.22, 207.38, 0.05, 320.9, 8890, -942, 18973
11200, 1, 4, 59.9631690, 10.7263430, 0, 184.22, 207.38, 0.05, 320.9, 8807, -906, 18957
11300, 1, 4, 59.9631690, 10.7263370, 0, 184.3, 207.32, 0.05, 320.9, 8799, -827, 18950
11400, 1, 4, 59.9631690, 10.7263370, 0, 184.22, 207.32, 0.05, 320.9, 8874, -798, 18887
11500, 1, 4, 59.9631690, 10.7263360, 0, 184.22, 207.29, 0.06, 320.9, 9046, -814, 18828
11600, 1, 4, 59.9631690, 10.7263360, 0, 184.3, 207.29, 0.06, 320.9, 9169, -874, 18814
11700, 1, 4, 59.9631690, 10.7263360, 0, 184.22, 207.29, 0.06, 320.9, 9210, -906, 18818
11800, 1, 4, 59.9631690, 10.7263360, 0, 184.3, 207.28, 0.06, 320.9, 9182, -894, 18802
11900, 1, 4, 59.9631690, 10.7263360, 0, 184.3, 207.28, 0.06, 320.9, 9126, -869, 18765
12000, 1, 4, 59.9631690, 10.7263330, 0, 184.22, 207.25, 0.07, 320.9, 9095, -848, 18677
12100, 1, 4, 59.9631690, 10.7263330, 0, 184.13, 207.25, 0.07, 320.9, 9080, -852, 18677
12200, 1, 4, 59.9631690, 10.7263330, 0, 184.13, 207.25, 0.07, 320.9, 9057, -853, 18678
12300, 1, 4, 59.9631690, 10.7263310, 0, 184.13, 207.24, 0.09, 320.9, 8865, -821, 18732
12400, 1, 4, 59.9631690, 10.7263310, 0, 184.13, 207.24, 0.09, 320.9, 8163, -729, 18882
12500, 1, 4, 59.9631690, 10.7263280, 0, 184.13, 207.23, 0.1, 320.9, 6707, -653, 18983
12600, 1, 4, 59.9631690, 10.7263280, 0, 184.13, 207.23, 0.1, 320.9, 4735, -594, 18892
12700, 1, 4, 59.9631690, 10.7263280, 0, 184.13, 207.23, 0.1, 320.9, 2738, -426, 18644
12800, 1, 4, 59.9631690, 10.7263210, 0, 184.13, 207.18, 0.12, 320.9, 1135, -314, 18260
12900, 1, 4, 59.9631690, 10.7263210, 0, 184.04, 207.18, 0.12, 320.9, 135, -192, 17929
13000, 1, 4, 59.9631690, 10.7263210, 0, 184.04, 207.18, 0.12, 320.9, -277, -164, 17709
13100, 1, 4, 59.9631690, 10.7263180, 0, 183.95, 207.16, 0.13, 320.9, -336, -209, 17618
13200, 1, 4, 59.9631690, 10.7263180, 0, 183.87, 207.16, 0.13, 320.9, -191, -218, 17641
13300, 1, 4, 59.9631690, 10.7263160, 0, 183.78, 207.13, 0.13, 320.9, -27, -256, 17713
13400, 1, 4, 59.9631690, 10.7263160, 0, 183.78, 207.13, 0.13, 320.9, 98, -277, 17745
13500, 1, 4, 59.9631690, 10.7263160, 0, 183.87, 207.13, 0.13, 320.9, 161, -289, 17750
13600, 1, 4, 59.9631690, 10.7263150, 0, 183.95, 207.11, 0.13, 320.9, 163, -296, 17750
13700, 1, 4, 59.9631690, 10.7263150, 0, 183.87, 207.11, 0.13, 320.9, 147, -276, 17723
13800, 1, 4, 59.9631690, 10.7263080, 0, 183.87, 207.03, 0.13, 320.9, 145, -287, 17691
13900, 1, 4, 59.9631690, 10.7263080, 0, 183.87, 207.03, 0.13, 320.9, 159, -285, 17679
14000, 1, 4, 59.9631690, 10.7263080, 0, 183.87, 207.03, 0.13, 320.9, 183, -295, 17667
14100, 1, 4, 59.9631690, 10.7263030, 0, 183.87, 206.95, 0.14, 320.9, 205, -289, 17660
14200, 1, 4, 59.9631690, 10.7263030, 0, 183.78, 206.95, 0.14, 320.9, 207, -276, 17662
14300, 1, 4, 59.9631690, 10.7263000, 0, 183.78, 206.85, 0.14, 320.9, 202, -207, 17668
14400, 1, 4, 59.9631690, 10.7263000, 0, 183.78, 206.85, 0.14, 320.9, 301, 82, 17728
14500, 1, 4, 59.9631690, 10.7263000, 0, 183.87, 206.85, 0.14, 320.9, 736, 510, 17952
14600, 1, 4, 59.9631610, 10.7262960, 0, 183.95, 206.83, 0.14, 320.9, 1404, 1114, 18306
14700, 1, 4, 59.9631610, 10.7262960, 0, 184.04, 206.83, 0.14, 320.9, 1786, 1883, 18675
14800, 1, 4, 59.9631610, 10.7262950, 0, 184.13, 206.96, 0.13, 320.9, 1654, 2983, 19377
14900, 1, 4, 59.9631610, 10.7262950, 0, 184.22, 206.96, 0.13, 320.9, 1742, 3907, 20319
15000, 1, 4, 59.9631610, 10.7262950, 0, 184.3, 206.96, 0.13, 320.9, 969, 4182, 20161
15100, 1, 4, 59.9631540, 10.7262930, 0, 184.3, 206.96, 0.12, 320.9, -144, 3639, 19499
15200, 1, 4, 59.9631540, 10.7262930, 0, 184.22, 206.96, 0.12, 320.9, -540, 3457, 19237
15300, 0, 3, 59.9631540, 10.7262930, 0, 184.13, 206.97, 0.12, 320.9, -155, 3329, 19186
15400, 0, 3, 59.9631540, 10.7262930, 0, 184.04, 206.97, 0.12, 320.9, 434, 3249, 19129
15500, 0, 3, 59.9631540, 10.7262930, 0, 183.95, 206.97, 0.13, 320.9, 938, 3000, 18985
15600, 0, 3, 59.9631540, 10.7262930, 0, 184.04, 206.97, 0.13, 320.9, 1253, 2415, 19015
15700, 0, 3, 59.9631540, 10.7262930, 0, 184.04, 206.97, 0.13, 320.9, 478, 2984, 18536
15800, 1, 4, 59.9631540, 10.7262880, 0, 184.04, 206.96, 0.14, 320.9, -603, 3965, 17734
15900, 1, 4, 59.9631540, 10.7262880, 0, 184.04, 206.96, 0.14, 320.9, -1247, 4222, 17254
16000, 1, 4, 59.9631540, 10.7262880, 0, 184.04, 206.96, 0.14, 320.9, -1299, 4776, 17217
16100, 1, 4, 59.9631540, 10.7262860, 0, 184.04, 206.96, 0.15, 320.9, -656, 5245, 17771
16200, 1, 4, 59.9631540, 10.7262860, 0, 184.04, 206.96, 0.15, 320.9, 930, 5699, 19041
16300, 1, 4, 59.9631540, 10.7262860, 0, 184.04, 206.95, 0.15, 320.9, 1808, 6309, 19839
16400, 1, 4, 59.9631540, 10.7262860, 0, 184.13, 206.95, 0.15, 320.9, 1089, 6414, 19507
16500, 1, 4, 59.9631540, 10.7262860, 0, 184.13, 206.95, 0.15, 320.9, 766, 6377, 19458
16600, 1, 4, 59.9631540, 10.7262830, 0, 184.13, 206.94, 0.14, 320.9, 279, 6337, 19186
16700, 1, 4, 59.9631540, 10.7262830, 0, 184.13, 206.94, 0.14, 320.9, -47, 6408, 19003
16800, 1, 4, 59.9631500, 10.7262810, 0, 184.13, 206.94, 0.13, 320.9, -131, 6450, 19050
16900, 1, 4, 59.9631500, 10.7262810, 0, 184.13, 206.94, 0.13, 320.9, -149, 6502, 19114
17000, 1, 4, 59.9631500, 10.7262810, 0, 184.13, 206.94, 0.13, 320.9, -133, 6541, 19211
17100, 1, 4, 59.9631500, 10.7262800, 0, 184.13, 206.95, 0.11, 320.9, -132, 6709, 19206
17200, 1, 4, 59.9631500, 10.7262800, 0, 184.04, 206.95, 0.11, 320.9, -236, 6743, 19176
17300, 1, 4, 59.9631540, 10.7262730, 0, 184.13, 206.97, 0.09, 320.9, -347, 6917, 19004
17400, 1, 4, 59.9631540, 10.7262730, 0, 184.13, 206.97, 0.09, 320.9, -456, 6959, 18841
17500, 1, 4, 59.9631540, 10.7262730, 0, 184.13, 206.97, 0.09, 320.9, -574, 7073, 18668
17600, 1, 4, 59.9631540, 10.7262680, 0, 184.13, 207.02, 0.09, 320.9, -704, 7107, 18504
17700, 1, 4, 59.9631540, 10.7262680, 0, 184.13, 207.02, 0.09, 320.9, -732, 7109, 18491
17800, 1, 4, 59.9631540, 10.7262650, 0, 184.13, 207.06, 0.09, 320.9, -490, 6846, 18778
17900, 1, 4, 59.9631540, 10.7262650, 0, 184.13, 207.06, 0.09, 320.9, -329, 6535, 18913
18000, 1, 4, 59.9631540, 10.7262650, 0, 184.13, 207.06, 0.09, 320.9, -254, 6110, 18915
18100, 1, 4, 59.9631610, 10.7262610, 0, 183.95, 207.1, 0.09, 320.9, -17, 5623, 19075
18200, 1, 4, 59.9631610, 10.7262610, 0, 183.87, 207.1, 0.09, 320.9, 264, 4771, 19109
18300, 1, 4, 59.9631540, 10.7262600, 0, 183.78, 207.12, 0.1, 320.9, 772, 4236, 19064
18400, 1, 4, 59.9631540, 10.7262600, 0, 183.78, 207.12, 0.1, 320.9, 1437, 4577, 19296
18500, 1, 4, 59.9631540, 10.7262600, 0, 183.7, 207.12, 0.1, 320.9, 2132, 4861, 19601
18600, 1, 4, 59.9631540, 10.7262600, 0, 183.7, 207.13, 0.11, 320.9, 1083, 5384, 18866
18700, 1, 4, 59.9631540, 10.7262600, 0, 183.7, 207.13, 0.11, 320.9, 557, 5692, 18355
18800, 1, 4, 59.9631540, 10.7262600, 0, 183.7, 207.14, 0.11, 320.9, 452, 5402, 18279
18900, 1, 4, 59.9631540, 10.7262600, 0, 183.7, 207.14, 0.11, 320.9, 566, 5362, 18348
19000, 1, 4, 59.9631540, 10.7262600, 0, 183.7, 207.14, 0.11, 320.9, 548, 5138, 18266
19100, 1, 4, 59.9631610, 10.7262610, 0, 183.7, 207.14, 0.1, 320.9, 454, 4982, 18175
19200, 1, 4, 59.9631610, 10.7262610, 0, 183.7, 207.14, 0.1, 320.9, 441, 4843, 18181
19300, 1, 4, 59.9631610, 10.7262630, 0, 183.78, 207.15, 0.1, 320.9, 441, 4596, 18218
19400, 1, 4, 59.9631610, 10.7262630, 0, 183.78, 207.15, 0.1, 320.9, 416, 4426, 18235
19500, 1, 4, 59.9631610, 10.7262630, 0, 183.78, 207.15, 0.1, 320.9, 402, 4357, 18224
19600, 1, 4, 59.9631610, 10.7262650, 0, 183.78, 207.17, 0.1, 320.9, 397, 4323, 18186
19700, 1, 4, 59.9631610, 10.7262650, 0, 183.78, 207.17, 0.1, 320.9, 378, 4346, 18143
19800, 1, 4, 59.9631610, 10.7262660, 0, 183.78, 207.18, 0.11, 320.9, 371, 4393, 18105
19900, 1, 4, 59.9631610, 10.7262660, 0, 183.78, 207.18, 0.11, 320.9, 349, 4407, 18070
20000, 1, 4, 59.9631610, 10.7262660, 0, 183.87, 207.18, 0.11, 320.9, 286, 4389, 17981
20100, 1, 4, 59.9631690, 10.7262680, 0, 183.87, 207.18, 0.19, 320.9, 288, 4399, 17965
20200, 1, 4, 59.9631690, 10.7262680, 0, 183.87, 207.18, 0.19, 320.9, 348, 4298, 17980
20300, 1, 4, 59.9631690, 10.7262710, 0, 183.87, 207.19, 0.2, 320.9, 393, 4262, 17971
20400, 1, 4, 59.9631690, 10.7262710, 0, 183.87, 207.19, 0.2, 320.9, 362, 4112, 17814
20500, 1, 4, 59.9631690, 10.7262710, 0, 183.87, 207.19, 0.2, 320.9, 254, 4044, 17633
20600, 1, 4, 59.9631690, 10.7262720, 0, 183.87, 207.2, 0.22, 320.9, 107, 4055, 17471
20700, 1, 4, 59.9631690, 10.7262720, 0, 183.95, 207.2, 0.22, 320.9, 18, 4135, 17461
20800, 1, 4, 59.9631690, 10.7262730, 0, 183.95, 207.21, 0.24, 320.9, 63, 4192, 17540
20900, 1, 4, 59.9631690, 10.7262730, 0, 183.95, 207.21, 0.24, 320.9, 116, 4179, 17605
21000, 1, 4, 59.9631690, 10.7262730, 0, 183.95, 207.21, 0.24, 320.9, 106, 4137, 17649
21100, 1, 4, 59.9631690, 10.7262720, 0, 183.95, 207.22, 0.25, 320.9, 52, 4134, 17684
21200, 1, 4, 59.9631690, 10.7262720, 0, 183.95, 207.22, 0.25, 320.9, -19, 4204, 17727
21300, 1, 4, 59.9631690, 10.7262710, 0, 183.95, 207.23, 0.25, 320.9, -45, 4245, 17798
21400, 1, 4, 59.9631690, 10.7262710, 0, 183.95, 207.23, 0.25, 320.9, -17, 4156, 17929
21500, 1, 4, 59.9631690, 10.7262710, 0, 183.95, 207.23, 0.25, 320.9, 51, 4067, 18077
21600, 1, 4, 59.9631690, 10.7262720, 0, 183.95, 207.24, 0.26, 320.9, 116, 4022, 18215
21700, 1, 4, 59.9631690, 10.7262720, 0, 183.95, 207.24, 0.26, 320.9, 173, 4086, 18315
21800, 1, 4, 59.9631730, 10.7262720, 0, 183.95, 207.25, 0.25, 320.9, 232, 4121, 18414
21900, 1, 4, 59.9631730, 10.7262720, 0, 183.95, 207.25, 0.25, 320.9, 264, 4095, 18474
22000, 1, 4, 59.9631730, 10.7262720, 0, 184.04, 207.25, 0.25, 320.9, 301, 4058, 18510
22100, 1, 4, 59.9631690, 10.7262730, 0, 184.04, 207.26, 0.25, 320.9, 295, 4031, 18495
22200, 1, 4, 59.9631690, 10.7262730, 0, 184.04, 207.26, 0.25, 320.9, 279, 3990, 18444
22300, 1, 4, 59.9631690, 10.7262780, 0, 184.04, 207.27, 0.25, 320.9, 231, 3886, 18287
22400, 1, 4, 59.9631690, 10.7262780, 0, 184.04, 207.27, 0.25, 320.9, 121, 3647, 17890
22500, 1, 4, 59.9631690, 10.7262780, 0, 184.04, 207.27, 0.25, 320.9, 57, 3463, 17433
22600, 1, 4, 59.9631690, 10.7262810, 0, 184.04, 207.28, 0.25, 320.9, -39, 3294, 16855
22700, 1, 4, 59.9631690, 10.7262810, 0, 184.04, 207.28, 0.25, 320.9, -203, 3274, 16024
22800, 1, 4, 59.9631690, 10.7262860, 0, 184.04, 207.27, 0.27, 54.73, -369, 3291, 15041
22900, 1, 4, 59.9631690, 10.7262860, 0, 183.95, 207.27, 0.27, 54.73, -470, 3162, 14274
23000, 1, 4, 59.9631690, 10.7262860, 0, 183.95, 207.27, 0.27, 54.73, -479, 3019, 13735
23100, 1, 4, 59.9631690, 10.7262880, 0, 183.87, 207.26, 0.28, 54.05, -526, 2885, 13236
23200, 1, 4, 59.9631690, 10.7262880, 0, 183.87, 207.26, 0.28, 54.05, -684, 2506, 12842
23300, 1, 4, 59.9631690, 10.7262920, 0, 183.87, 207.27, 0.31, 54.98, -925, 2360, 12942
23400, 1, 4, 59.9631690, 10.7262920, 0, 183.95, 207.27, 0.31, 54.98, -1251, 2851, 13778
23500, 1, 4, 59.9631690, 10.7262920, 0, 184.22, 207.27, 0.31, 54.98, -1479, 3228, 14505
23600, 1, 4, 59.9631690, 10.7262930, 0, 184.65, 207.27, 0.33, 54.4, -1347, 3565, 15519
23700, 1, 4, 59.9631690, 10.7262930, 0, 184.91, 207.27, 0.33, 54.4, -803, 3368, 16761
23800, 1, 4, 59.9631690, 10.7262860, 0, 185.08, 207.28, 0.31, 54.4, -299, 2919, 17846
23900, 1, 4, 59.9631690, 10.7262860, 0, 185.25, 207.28, 0.31, 54.4, -4, 2443, 18686
24000, 1, 4, 59.9631690, 10.7262860, 0, 185.34, 207.28, 0.31, 54.4, 201, 2039, 19304
24100, 1, 4, 59.9631610, 10.7262830, 0, 185.51, 207.28, 0.11, 54.4, 334, 1568, 19687
24200, 1, 4, 59.9631610, 10.7262830, 0, 185.69, 207.28, 0.11, 54.4, 532, 1425, 19888
24300, 1, 4, 59.9631540, 10.7262780, 0, 185.94, 207.29, 0.13, 54.44, 700, 1471, 19881
24400, 1, 4, 59.9631540, 10.7262780, 0, 186.03, 207.29, 0.13, 54.44, 783, 1665, 19690
24500, 1, 4, 59.9631540, 10.7262780, 0, 186.12, 207.29, 0.13, 54.44, 671, 1874, 19333
24600, 1, 4, 59.9631420, 10.7262720, 0, 186.29, 207.3, 0.41, 204.22, 367, 2080, 18913
24700, 1, 4, 59.9631420, 10.7262720, 0, 186.46, 207.3, 0.41, 204.22, -62, 2223, 18534
24800, 1, 4, 59.9631230, 10.7262600, 0, 186.64, 207.29, 0.85, 204.94, -410, 2365, 18302
24900, 1, 4, 59.9631230, 10.7262600, 0, 186.9, 207.29, 0.85, 204.94, -629, 2497, 18231
25000, 1, 4, 59.9631230, 10.7262600, 0, 187.15, 207.29, 0.85, 204.94, -644, 2582, 18310
25100, 1, 4, 59.9631160, 10.7262570, 0, 187.33, 207.3, 0.85, 205.53, -459, 2571, 18484
25200, 1, 4, 59.9631160, 10.7262570, 0, 187.5, 207.3, 0.85, 205.53, -90, 2480, 18629
25300, 1, 4, 59.9631120, 10.7262530, 0, 187.59, 207.32, 0.87, 208.2, 399, 2536, 18741
25400, 1, 4, 59.9631120, 10.7262530, 0, 187.85, 207.32, 0.87, 208.2, 669, 2455, 18753
25500, 1, 4, 59.9631120, 10.7262530, 0, 188.11, 207.32, 0.87, 208.2, 989, 2516, 18784
25600, 1, 4, 59.9631040, 10.7262500, 0, 188.37, 207.34, 0.97, 208.04, 1104, 2612, 18831
25700, 1, 4, 59.9631040, 10.7262500, 0, 188.63, 207.34, 0.97, 208.04, 1102, 2646, 18917
25800, 1, 4, 59.9630970, 10.7262500, 0, 188.97, 207.31, 0.99, 206.42, 1158, 2658, 19068
25900, 1, 4, 59.9630970, 10.7262500, 0, 189.23, 207.31, 0.99, 206.42, 1169, 2650, 19260
26000, 1, 4, 59.9630970, 10.7262500, 0, 189.4, 207.31, 0.99, 206.42, 1131, 2628, 19458
26100, 1, 4, 59.9630850, 10.7262500, 0, 189.75, 207.27, 1.08, 204.99, 1130, 2613, 19646
26200, 1, 4, 59.9630850, 10.7262500, 0, 190.01, 207.27, 1.08, 204.99, 1133, 2631, 19807
26300, 0, 3, 59.9630850, 10.7262500, 0, 190.36, 207.22, 1.11, 204.23, 1151, 2686, 19924
26400, 0, 3, 59.9630850, 10.7262500, 0, 190.62, 207.22, 1.11, 204.23, 1143, 2691, 19987
26500, 0, 3, 59.9630850, 10.7262500, 0, 190.96, 207.22, 1.11, 204.23, 1091, 2725, 20049
26600, 0, 3, 59.9630850, 10.7262500, 0, 191.31, 207.19, 1.22, 204.72, 1009, 2776, 20136
26700, 0, 3, 59.9630850, 10.7262500, 0, 191.74, 207.19, 1.22, 204.72, 949, 2778, 20242
26800, 0, 3, 59.9630850, 10.7262500, 0, 192.26, 207.16, 1.25, 205.76, 865, 2794, 20371
26900, 0, 3, 59.9630850, 10.7262500, 0, 192.78, 207.16, 1.25, 205.76, 835, 2844, 20526
27000, 0, 3, 59.9630850, 10.7262500, 0, 193.3, 207.16, 1.25, 205.76, 802, 2850, 20674
27100, 0, 3, 59.9630850, 10.7262500, 0, 193.64, 207.11, 1.39, 207.89, 748, 2878, 20812
27200, 0, 3, 59.9630850, 10.7262500, 0, 194.16, 207.11, 1.39, 207.89, 654, 2902, 20930
27300, 0, 3, 59.9630850, 10.7262500, 0, 194.6, 207.05, 1.52, 208.18, 569, 2952, 21033
27400, 0, 3, 59.9630850, 10.7262500, 0, 195.12, 207.05, 1.52, 208.18, 486, 2960, 21116
27500, 0, 3, 59.9630850, 10.7262500, 0, 195.64, 207.05, 1.52, 208.18, 151, 2972, 21169
27600, 0, 3, 59.9630850, 10.7262500, 0, 196.15, 206.99, 1.8, 210.25, -559, 3079, 21204
27700, 0, 3, 59.9630850, 10.7262500, 0, 196.67, 206.99, 1.8, 210.25, -1312, 3104, 21251
27800, 0, 3, 59.9630850, 10.7262500, 0, 197.11, 206.93, 2.08, 211.34, -1948, 3115, 21276
27900, 0, 3, 59.9630850, 10.7262500, 0, 197.54, 206.93, 2.08, 211.34, -2334, 3059, 21260
28000, 0, 3, 59.9630850, 10.7262500, 0, 198.06, 206.93, 2.08, 211.34, -2616, 2952, 21170
28100, 0, 3, 59.9630850, 10.7262500, 0, 198.58, 206.89, 2.38, 210.91, -2778, 2829, 21016
28200, 0, 3, 59.9630850, 10.7262500, 0, 199.1, 206.89, 2.38, 210.91, -2847, 2789, 20730
28300, 0, 4, 59.9630850, 10.7262500, 0, 199.62, 206.87, 2.74, 210.28, -2974, 2770, 20418
28400, 0, 4, 59.9630850, 10.7262500, 0, 200.22, 206.87, 2.74, 210.28, -3333, 2744, 20104
28500, 0, 4, 59.9630850, 10.7262500, 0, 200.83, 206.87, 2.74, 210.28, -3891, 2750, 19803
28600, 0, 4, 59.9630850, 10.7262500, 0, 201.35, 206.87, 15.37, 208.17, -4426, 2802, 19504
28700, 0, 4, 59.9630850, 10.7262500, 0, 201.87, 206.87, 15.37, 208.17, -4909, 2865, 19148
28800, 1, 5, 59.9629440, 10.7261350, 0, 202.48, 208.89, 14.72, 210.7, -5347, 2953, 18628
28900, 1, 5, 59.9629440, 10.7261350, 0, 203, 208.89, 14.72, 210.7, -5658, 3063, 17927
29000, 1, 5, 59.9629440, 10.7261350, 0, 203.52, 208.89, 14.72, 210.7, -5866, 3023, 17253
29100, 1, 5, 59.9629140, 10.7260890, 0, 204.04, 209.51, 14.27, 213.09, -5841, 2785, 16707
29200, 1, 5, 59.9629140, 10.7260890, 0, 204.47, 209.51, 14.27, 213.09, -5747, 2514, 16201
29300, 1, 5, 59.9628680, 10.7260430, 0, 204.9, 210.46, 13.92, 212.04, -5693, 2295, 15584
29400, 1, 5, 59.9628680, 10.7260430, 0, 205.42, 210.46, 13.92, 212.04, -5604, 2156, 14982
29500, 1, 5, 59.9628680, 10.7260430, 0, 205.94, 210.46, 13.92, 212.04, -5364, 2014, 14499
29600, 1, 5, 59.9628300, 10.7260070, 0, 206.38, 211.26, 13.21, 210.86, -5192, 1883, 14077
29700, 1, 5, 59.9628300, 10.7260070, 0, 206.72, 211.26, 13.21, 210.86, -5023, 1857, 13676
29800, 1, 5, 59.9627950, 10.7259710, 0, 207.16, 212.07, 12.27, 211.57, -4785, 1861, 13330
29900, 1, 5, 59.9627950, 10.7259710, 0, 207.5, 212.07, 12.27, 211.57, -4550, 1845, 12970
30000, 1, 5, 59.9627950, 10.7259710, 0, 207.85, 212.07, 12.27, 211.57, -4356, 1837, 12613
30100, 1, 5, 59.9627650, 10.7259310, 0, 208.2, 212.71, 12.27, 210.74, -4197, 1923, 12197
30200, 1, 5, 59.9627650, 10.7259310, 0, 208.63, 212.71, 12.27, 210.74, -4160, 1922, 11845
30300, 1, 5, 59.9627340, 10.7258930, 0, 209.06, 213.34, 12.29, 209.87, -4380, 1889, 11442
30400, 1, 5, 59.9627340, 10.7258930, 0, 209.33, 213.34, 12.29, 209.87, -4748, 1903, 10996
30500, 1, 5, 59.9627340, 10.7258930, 0, 209.67, 213.34, 12.29, 209.87, -5087, 1916, 10577
30600, 1, 5, 59.9627000, 10.7258630, 0, 209.93, 213.76, 12.31, 209.41, -5451, 1954, 10087
30700, 1, 5, 59.9627000, 10.7258630, 0, 210.19, 213.76, 12.31, 209.41, -5669, 1957, 9574
30800, 1, 5, 59.9626690, 10.7258350, 0, 210.45, 214.23, 12.32, 208.84, -5745, 1889, 9039
30900, 1, 5, 59.9626690, 10.7258350, 0, 210.71, 214.23, 12.32, 208.84, -5799, 1816, 8412
31000, 1, 5, 59.9626690, 10.7258350, 0, 210.89, 214.23, 12.32, 208.84, -5669, 1702, 7857
31100, 0, 4, 59.9626690, 10.7258350, 0, 211.15, 214.55, 12.34, 207.63, -5331, 1554, 7374
31200, 0, 4, 59.9626690, 10.7258350, 0, 211.32, 214.55, 12.34, 207.63, -4974, 1422, 6879
31300, 0, 3, 59.9626690, 10.7258350, 0, 211.58, 214.81, 12.33, 205.73, -4691, 1311, 6452
31400, 0, 3, 59.9626690, 10.7258350, 0, 211.75, 214.81, 12.33, 205.73, -4206, 1360, 6083
31500, 0, 3, 59.9626690, 10.7258350, 0, 211.93, 214.81, 12.33, 205.73, -3696, 1515, 5770
31600, 0, 3, 59.9626690, 10.7258350, 0, 212.01, 215.08, 12.18, 203.49, -3195, 1639, 5526
31700, 0, 3, 59.9626690, 10.7258350, 0, 212.27, 215.08, 12.18, 203.49, -2670, 1775, 5328
31800, 0, 3, 59.9626690, 10.7258350, 0, 212.45, 215.43, 12.21, 201.01, -2110, 1802, 5225
31900, 0, 3, 59.9626690, 10.7258350, 0, 212.62, 215.43, 12.21, 201.01, -1577, 1836, 5132
32000, 0, 3, 59.9626690, 10.7258350, 0, 212.71, 215.43, 12.21, 201.01, -1102, 1750, 5081
32100, 0, 3, 59.9626690, 10.7258350, 0, 212.88, 215.73, 12.24, 198.62, -639, 1777, 5010
32200, 0, 3, 59.9626690, 10.7258350, 0, 212.79, 215.73, 12.24, 198.62, -281, 1792, 4979
32300, 0, 3, 59.9626690, 10.7258350, 0, 212.97, 215.71, 12.23, 197.31, -186, 1787, 4982
32400, 0, 3, 59.9626690, 10.7258350, 0, 213.05, 215.71, 12.23, 197.31, -338, 1865, 5018
32500, 0, 3, 59.9626690, 10.7258350, 0, 213.23, 215.71, 12.23, 197.31, -562, 2014, 5045
32600, 0, 3, 59.9626690, 10.7258350, 0, 213.31, 215.92, 11.99, 196.94, -812, 2115, 5028
32700, 0, 3, 59.9626690, 10.7258350, 0, 213.57, 215.92, 11.99, 196.94, -990, 2213, 4952
32800, 0, 3, 59.9626690, 10.7258350, 0, 213.75, 216.17, 11.74, 197.4, -1174, 2269, 4775
32900, 0, 3, 59.9626690, 10.7258350, 0, 214.01, 216.17, 11.74, 197.4, -1335, 2190, 4517
33000, 0, 3, 59.9626690, 10.7258350, 0, 214.27, 216.17, 11.74, 197.4, -1439, 2148, 4232
33100, 0, 3, 59.9626690, 10.7258350, 0, 214.44, 216.42, 11.38, 198.5, -1468, 2126, 3992
33200, 0, 3, 59.9626690, 10.7258350, 0, 214.7, 216.42, 11.38, 198.5, -1392, 2114, 3788
33300, 0, 3, 59.9626690, 10.7258350, 0, 214.88, 216.65, 11.16, 199.99, -1210, 2105, 3623
33400, 0, 3, 59.9626690, 10.7258350, 0, 215.14, 216.65, 11.16, 199.99, -814, 2035, 3538
33500, 0, 3, 59.9626690, 10.7258350, 0, 215.4, 216.65, 11.16, 199.99, -370, 1888, 3485
33600, 0, 3, 59.9626690, 10.7258350, 0, 215.48, 216.68, 10.94, 201.76, -29, 1878, 3430
33700, 0, 3, 59.9626690, 10.7258350, 0, 215.74, 216.68, 10.94, 201.76, 320, 1819, 3408
33800, 0, 3, 59.9626690, 10.7258350, 0, 215.83, 216.97, 10.41, 210.04, 687, 1761, 3411
33900, 0, 3, 59.9626690, 10.7258350, 0, 215.92, 216.97, 10.41, 210.04, 930, 1691, 3413
34000, 0, 3, 59.9626690, 10.7258350, 0, 216, 216.97, 10.41, 210.04, 1129, 1624, 3422
34100, 0, 3, 59.9626690, 10.7258350, 0, 216, 217.23, 10.2, 213.83, 1212, 1566, 3433
34200, 0, 3, 59.9626690, 10.7258350, 0, 216.18, 217.23, 10.2, 213.83, 1219, 1531, 3453
34300, 0, 3, 59.9626690, 10.7258350, 0, 216.26, 217.46, 10.03, 218.31, 1101, 1543, 3480
34400, 0, 3, 59.9626690, 10.7258350, 0, 216.44, 217.46, 10.03, 218.31, 902, 1562, 3510
34500, 0, 3, 59.9626690, 10.7258350, 0, 216.53, 217.46, 10.03, 218.31, 692, 1576, 3537
34600, 0, 3, 59.9626690, 10.7258350, 0, 216.61, 217.67, 10.03, 218.46, 478, 1601, 3555
34700, 0, 3, 59.9626690, 10.7258350, 0, 216.79, 217.67, 10.03, 218.46, 153, 1634, 3559
34800, 0, 3, 59.9626690, 10.7258350, 0, 216.87, 217.98, 10.05, 230.89, -105, 1676, 3546
34900, 0, 3, 59.9626690, 10.7258350, 0, 217.05, 217.98, 10.05, 230.89, -239, 1704, 3504
35000, 0, 3, 59.9626690, 10.7258350, 0, 217.13, 217.98, 10.05, 230.89, -374, 1715, 3411
35100, 0, 3, 59.9626690, 10.7258350, 0, 217.22, 218.22, 10.57, 243.3, -421, 1623, 3288
35200, 0, 3, 59.9626690, 10.7258350, 0, 217.22, 218.22, 10.57, 243.3, -323, 1577, 3134
35300, 0, 3, 59.9626690, 10.7258350, 0, 217.13, 218.44, 11.01, 249.35, -85, 1560, 2990
35400, 0, 3, 59.9626690, 10.7258350, 0, 217.22, 218.44, 11.01, 249.35, 267, 1570, 2913
35500, 0, 3, 59.9626690, 10.7258350, 0, 217.31, 218.44, 11.01, 249.35, 511, 1512, 2876
35600, 0, 3, 59.9626690, 10.7258350, 0, 217.48, 218.58, 11.28, 252.38, 785, 1435, 2895
35700, 0, 3, 59.9626690, 10.7258350, 0, 217.48, 218.58, 11.28, 252.38, 1086, 1413, 2982
35800, 0, 3, 59.9626690, 10.7258350, 0, 217.57, 218.69, 11.43, 254.24, 1343, 1426, 3067
35900, 0, 3, 59.9626690, 10.7258350, 0, 217.65, 218.69, 11.43, 254.24, 1603, 1427, 3118
36000, 0, 3, 59.9626690, 10.7258350, 0, 217.83, 218.69, 11.43, 254.24, 1887, 1454, 3160
36100, 0, 3, 59.9626690, 10.7258350, 0, 217.91, 218.76, 11.67, 256.98, 2046, 1435, 3169
36200, 0, 3, 59.9626690, 10.7258350, 0, 217.91, 218.76, 11.67, 256.98, 2248, 1459, 3211
36300, 0, 3, 59.9626690, 10.7258350, 0, 218, 218.76, 11.93, 260.04, 2267, 1490, 3273
36400, 0, 3, 59.9626690, 10.7258350, 0, 218.09, 218.76, 11.93, 260.04, 2246, 1504, 3366
36500, 0, 3, 59.9626690, 10.7258350, 0, 218.17, 218.76, 11.93, 260.04, 2020, 1556, 3443
36600, 0, 3, 59.9626690, 10.7258350, 0, 218.26, 218.71, 12.77, 266.14, 1820, 1637, 3540
36700, 0, 3, 59.9626690, 10.7258350, 0, 218.17, 218.71, 12.77, 266.14, 1847, 1627, 3666
36800, 0, 3, 59.9626690, 10.7258350, 0, 218.26, 218.66, 12.31, 267.14, 1821, 1590, 3808
36900, 0, 3, 59.9626690, 10.7258350, 0, 218.17, 218.66, 12.31, 267.14, 1835, 1608, 3951
37000, 0, 3, 59.9626690, 10.7258350, 0, 218.26, 218.66, 12.31, 267.14, 1938, 1632, 4071
37100, 0, 3, 59.9626690, 10.7258350, 0, 218.35, 218.81, 8.21, 287.88, 1949, 1665, 4133
37200, 0, 3, 59.9626690, 10.7258350, 0, 218.52, 218.81, 8.21, 287.88, 1962, 1688, 4174
37300, 0, 3, 59.9626690, 10.7258350, 0, 218.69, 218.81, 8.21, 287.88, 2008, 1768, 4236
37400, 0, 4, 59.9626690, 10.7258350, 0, 219.04, 219.89, 6.26, 333.49, 1953, 1744, 4257
37500, 0, 4, 59.9626690, 10.7258350, 0, 219.3, 219.89, 6.26, 333.49, 2020, 1797, 4314
37600, 1, 5, 59.9624900, 10.7258280, 0, 219.48, 220.07, 8.27, 5.06, 2061, 1830, 4400
37700, 1, 5, 59.9624900, 10.7258280, 0, 219.65, 220.07, 8.27, 5.06, 2119, 1830, 4545
37800, 1, 5, 59.9624900, 10.7258280, 0, 219.91, 220.07, 8.27, 5.06, 2137, 1794, 4732
37900, 1, 5, 59.9625930, 10.7259610, 0, 220.17, 220.1, 9.32, 11.99, 2061, 1828, 4959
38000, 1, 5, 59.9625930, 10.7259610, 0, 220.43, 220.1, 9.32, 11.99, 1840, 1862, 5141
38100, 1, 5, 59.9626880, 10.7260480, 0, 220.69, 220.2, 10.72, 14.46, 1477, 1919, 5265
38200, 1, 5, 59.9626880, 10.7260480, 0, 220.95, 220.2, 10.72, 14.46, 1041, 2032, 5348
38300, 1, 5, 59.9626880, 10.7260480, 0, 221.39, 220.2, 10.72, 14.46, 659, 2087, 5398
38400, 1, 5, 59.9627530, 10.7261350, 0, 221.73, 220.39, 10.82, 16.5, 367, 2054, 5405
38500, 1, 5, 59.9627530, 10.7261350, 0, 222.08, 220.39, 10.82, 16.5, 150, 2033, 5393
38600, 1, 5, 59.9628030, 10.7262170, 0, 222.34, 220.62, 10.8, 18.61, 24, 1976, 5372
38700, 1, 5, 59.9628030, 10.7262170, 0, 222.78, 220.62, 10.8, 18.61, -152, 1935, 5339
38800, 1, 5, 59.9628030, 10.7262170, 0, 223.12, 220.62, 10.8, 18.61, -298, 1911, 5310
38900, 1, 5, 59.9628410, 10.7262930, 0, 223.47, 220.92, 10.49, 21.43, -363, 1907, 5306
39000, 1, 5, 59.9628410, 10.7262930, 0, 223.99, 220.92, 10.49, 21.43, -472, 1862, 5300
39100, 1, 5, 59.9628750, 10.7265210, 0, 224.43, 220.59, 9.79, 24.26, -481, 1771, 5318
39200, 1, 5, 59.9628750, 10.7265210, 0, 224.77, 220.59, 9.79, 24.26, -262, 1712, 5354
39300, 1, 5, 59.9628750, 10.7265210, 0, 225.12, 220.59, 9.79, 24.26, 82, 1562, 5383
39400, 1, 5, 59.9628980, 10.7266640, 0, 225.55, 220.44, 9.89, 24.56, 505, 1573, 5433
39500, 1, 5, 59.9628980, 10.7266640, 0, 225.99, 220.44, 9.89, 24.56, 700, 1575, 5497
39600, 1, 5, 59.9629170, 10.7266810, 0, 226.34, 220.63, 9.9, 25.31, 647, 1505, 5597
39700, 1, 5, 59.9629170, 10.7266810, 0, 226.68, 220.63, 9.9, 25.31, 630, 1435, 5756
39800, 1, 5, 59.9629170, 10.7266810, 0, 227.12, 220.63, 9.9, 25.31, 600, 1392, 5929
39900, 1, 5, 59.9629440, 10.7267000, 0, 227.38, 220.86, 10.04, 25.74, 539, 1267, 6082
40000, 1, 5, 59.9629440, 10.7267000, 0, 227.64, 220.86, 10.04, 25.74, 501, 1143, 6195
40100, 1, 5, 59.9629630, 10.7267200, 0, 227.99, 221.11, 9.84, 26.42, 410, 1032, 6255
40200, 1, 5, 59.9629630, 10.7267200, 0, 228.42, 221.11, 9.84, 26.42, 268, 881, 6303
40300, 1, 5, 59.9629630, 10.7267200, 0, 228.68, 221.11, 9.84, 26.42, 211, 930, 6333
40400, 1, 5, 59.9629820, 10.7267400, 0, 229.03, 221.37, 9.87, 26.17, -106, 1151, 6332
40500, 1, 5, 59.9629820, 10.7267400, 0, 229.47, 221.37, 9.87, 26.17, -395, 1254, 6348
40600, 1, 5, 59.9630090, 10.7268780, 0, 229.73, 221.07, 11.23, 23.93, -476, 1339, 6411
40700, 1, 5, 59.9630090, 10.7268780, 0, 230.07, 221.07, 11.23, 23.93, -654, 1285, 6453
40800, 1, 5, 59.9630090, 10.7268780, 0, 230.33, 221.07, 11.23, 23.93, -881, 1193, 6449
40900, 1, 5, 59.9630280, 10.7268970, 0, 230.59, 221.15, 11.37, 22.97, -1122, 1140, 6393
41000, 1, 5, 59.9630280, 10.7268970, 0, 230.86, 221.15, 11.37, 22.97, -1419, 1140, 6266
41100, 1, 5, 59.9630550, 10.7269180, 0, 231.12, 221.27, 11.08, 22.58, -1781, 1062, 6111
41200, 1, 5, 59.9630550, 10.7269180, 0, 231.38, 221.27, 11.08, 22.58, -1980, 926, 6014
41300, 1, 5, 59.9630550, 10.7269180, 0, 231.72, 221.27, 11.08, 22.58, -2289, 797, 5920
41400, 1, 5, 59.9630780, 10.7269360, 0, 231.99, 221.41, 11.11, 22.21, -2380, 611, 5881
41500, 1, 5, 59.9630780, 10.7269360, 0, 232.25, 221.41, 11.11, 22.21, -2370, 529, 5788
41600, 1, 5, 59.9630970, 10.7269550, 0, 232.42, 221.56, 11.34, 20.94, -2324, 619, 5656
41700, 1, 5, 59.9630970, 10.7269550, 0, 232.68, 221.56, 11.34, 20.94, -2190, 675, 5569
41800, 1, 5, 59.9630970, 10.7269550, 0, 232.94, 221.56, 11.34, 20.94, -2123, 611, 5499
41900, 1, 5, 59.9631230, 10.7269730, 0, 233.2, 221.71, 11.64, 19.91, -2188, 607, 5412
42000, 1, 5, 59.9631230, 10.7269730, 0, 233.29, 221.71, 11.64, 19.91, -2264, 649, 5276
42100, 1, 5, 59.9631500, 10.7269910, 0, 233.55, 221.86, 11.86, 18.07, -2238, 685, 5169
42200, 1, 5, 59.9631500, 10.7269910, 0, 233.72, 221.86, 11.86, 18.07, -2206, 737, 5030
42300, 1, 5, 59.9631500, 10.7269910, 0, 233.9, 221.86, 11.86, 18.07, -2165, 801, 4887
42400, 1, 5, 59.9631810, 10.7270410, 0, 234.07, 221.82, 12.12, 16.99, -2187, 811, 4729
42500, 1, 5, 59.9631810, 10.7270410, 0, 234.33, 221.82, 12.12, 16.99, -2173, 871, 4583
42600, 1, 5, 59.9632110, 10.7270760, 0, 234.51, 221.69, 12.2, 15.87, -2206, 909, 4436
42700, 1, 5, 59.9632110, 10.7270760, 0, 234.77, 221.69, 12.2, 15.87, -2234, 995, 4315
42800, 1, 5, 59.9632110, 10.7270760, 0, 235.03, 221.69, 12.2, 15.87, -2351, 1071, 4188
42900, 1, 5, 59.9632530, 10.7271000, 0, 235.12, 221.68, 12.11, 14.81, -2359, 1219, 4064
43000, 1, 5, 59.9632530, 10.7271000, 0, 235.2, 221.68, 12.11, 14.81, -2360, 1251, 3951
43100, 1, 5, 59.9632840, 10.7271180, 0, 235.38, 221.56, 11.97, 13.7, -2483, 1357, 3794
43200, 1, 5, 59.9632840, 10.7271180, 0, 235.55, 221.56, 11.97, 13.7, -2632, 1452, 3594
43300, 1, 5, 59.9632840, 10.7271180, 0, 235.73, 221.56, 11.97, 13.7, -2730, 1500, 3398
43400, 1, 5, 59.9633140, 10.7271200, 0, 235.99, 221.73, 11.81, 354.96, -2811, 1609, 3197
43500, 1, 5, 59.9633140, 10.7271200, 0, 236.25, 221.73, 11.81, 354.96, -2887, 1620, 2999
43600, 1, 5, 59.9633520, 10.7271110, 0, 236.51, 221.85, 12, 348.48, -2736, 1640, 2850
43700, 1, 5, 59.9633520, 10.7271110, 0, 236.86, 221.85, 12, 348.48, -2680, 1633, 2668
43800, 1, 5, 59.9633520, 10.7271110, 0, 237.12, 221.85, 12, 348.48, -2757, 1655, 2443
43900, 1, 5, 59.9633870, 10.7270960, 0, 237.46, 222.06, 12.23, 344.75, -2741, 1513, 2293
44000, 1, 5, 59.9633870, 10.7270960, 0, 237.81, 222.06, 12.23, 344.75, -2657, 1352, 2184
44100, 1, 5, 59.9634170, 10.7270710, 0, 238.07, 222.31, 12.24, 338.69, -2267, 1100, 2193
44200, 1, 5, 59.9634170, 10.7270710, 0, 238.25, 222.31, 12.24, 338.69, -1808, 879, 2184
44300, 1, 5, 59.9634170, 10.7270710, 0, 238.51, 222.31, 12.24, 338.69, -1311, 759, 2188
44400, 1, 5, 59.9634440, 10.7270430, 0, 238.86, 222.44, 12.05, 333.57, -896, 587, 2210
44500, 1, 5, 59.9634440, 10.7270430, 0, 239.12, 222.44, 12.05, 333.57, -473, 444, 2230
44600, 1, 5, 59.9634700, 10.7270100, 0, 239.38, 222.94, 12.41, 331.72, -85, 286, 2171
44700, 1, 5, 59.9634700, 10.7270100, 0, 239.64, 222.94, 12.41, 331.72, 207, 263, 2071
44800, 1, 5, 59.9634700, 10.7270100, 0, 239.81, 222.94, 12.41, 331.72, 275, 184, 1981
44900, 1, 5, 59.9635010, 10.7269720, 0, 240.08, 223.48, 13.17, 330.32, 329, 199, 1898
45000, 1, 5, 59.9635010, 10.7269720, 0, 240.16, 223.48, 13.17, 330.32, 402, 239, 1814
45100, 1, 5, 59.9635310, 10.7269320, 0, 240.25, 224.02, 13.92, 329.14, 476, 227, 1709
45200, 1, 5, 59.9635310, 10.7269320, 0, 240.42, 224.02, 13.92, 329.14, 605, 291, 1596
45300, 1, 5, 59.9635310, 10.7269320, 0, 240.51, 224.02, 13.92, 329.14, 668, 345, 1487
45400, 1, 5, 59.9635580, 10.7268950, 0, 240.77, 224.67, 14.5, 328.19, 652, 374, 1380
45500, 1, 5, 59.9635580, 10.7268950, 0, 240.95, 224.67, 14.5, 328.19, 726, 361, 1292
45600, 1, 5, 59.9635890, 10.7268510, 0, 241.03, 225.32, 14.98, 327.17, 765, 360, 1223
45700, 1, 5, 59.9635890, 10.7268510, 0, 241.03, 225.32, 14.98, 327.17, 763, 385, 1165
45800, 1, 5, 59.9635890, 10.7268510, 0, 241.21, 225.32, 14.98, 327.17, 787, 383, 1108
45900, 1, 5, 59.9636230, 10.7267900, 0, 241.38, 225.94, 15.68, 325.38, 772, 398, 1037
46000, 1, 5, 59.9636230, 10.7267900, 0, 241.47, 225.94, 15.68, 325.38, 740, 393, 956
46100, 1, 5, 59.9636420, 10.7267310, 0, 241.64, 226.61, 15.58, 320.08, 694, 435, 867
46200, 1, 5, 59.9636420, 10.7267310, 0, 241.82, 226.61, 15.58, 320.08, 682, 417, 779
46300, 1, 5, 59.9636420, 10.7267310, 0, 241.9, 226.61, 15.58, 320.08, 677, 408, 701
46400, 1, 5, 59.9636540, 10.7266730, 0, 242.16, 227.87, 15.62, 316.22, 653, 383, 632
46500, 1, 5, 59.9636540, 10.7266730, 0, 242.25, 227.87, 15.62, 316.22, 657, 422, 567
46600, 1, 5, 59.9636730, 10.7266110, 0, 242.42, 229.14, 15.82, 312.69, 618, 397, 488
46700, 1, 5, 59.9636730, 10.7266110, 0, 242.51, 229.14, 15.82, 312.69, 607, 410, 402
46800, 1, 5, 59.9636730, 10.7266110, 0, 242.77, 229.14, 15.82, 312.69, 551, 422, 305
46900, 1, 5, 59.9636920, 10.7265560, 0, 243.03, 229.81, 15.7, 311.25, 565, 478, 210
47000, 1, 5, 59.9636920, 10.7265560, 0, 243.3, 229.81, 15.7, 311.25, 571, 475, 123
47100, 1, 5, 59.9637180, 10.7264950, 0, 243.47, 230.26, 15.74, 310.1, 526, 492, 42
47200, 1, 5, 59.9637180, 10.7264950, 0, 243.73, 230.26, 15.74, 310.1, 510, 561, 35974
47300, 1, 5, 59.9637180, 10.7264950, 0, 243.9, 230.26, 15.74, 310.1, 540, 549, 35912
47400, 1, 5, 59.9637450, 10.7264310, 0, 244.17, 230.93, 15.87, 309.16, 526, 555, 35850
47500, 1, 5, 59.9637450, 10.7264310, 0, 244.43, 230.93, 15.87, 309.16, 519, 610, 35784
47600, 1, 5, 59.9637680, 10.7263630, 0, 244.69, 231.58, 16.03, 308.12, 547, 622, 35710
47700, 1, 5, 59.9637680, 10.7263630, 0, 245.04, 231.58, 16.03, 308.12, 541, 623, 35614
47800, 1, 5, 59.9637680, 10.7263630, 0, 245.3, 231.58, 16.03, 308.12, 545, 683, 35507
47900, 1, 5, 59.9637950, 10.7262970, 0, 245.56, 232.23, 16.18, 307.42, 524, 679, 35397
48000, 1, 5, 59.9637950, 10.7262970, 0, 245.91, 232.23, 16.18, 307.42, 516, 652, 35295
48100, 1, 5, 59.9638290, 10.7262330, 0, 246.17, 232.73, 16.28, 307.03, 522, 683, 35210
48200, 1, 5, 59.9638290, 10.7262330, 0, 246.43, 232.73, 16.28, 307.03, 438, 644, 35142
48300, 1, 5, 59.9638290, 10.7262330, 0, 246.69, 232.73, 16.28, 307.03, 216, 708, 35081
48400, 1, 5, 59.9638520, 10.7261700, 0, 247.04, 233.18, 16.26, 307.2, -136, 724, 35005
48500, 1, 5, 59.9638520, 10.7261700, 0, 247.39, 233.18, 16.26, 307.2, -611, 799, 34892
48600, 1, 5, 59.9638860, 10.7261050, 0, 247.65, 233.65, 16.26, 306.71, -1166, 999, 34716
48700, 1, 5, 59.9638860, 10.7261050, 0, 247.91, 233.65, 16.26, 306.71, -1750, 1064, 34508
48800, 1, 5, 59.9638860, 10.7261050, 0, 248.35, 233.65, 16.26, 306.71, -2253, 1123, 34247
48900, 1, 5, 59.9639090, 10.7260400, 0, 248.61, 234.23, 16.06, 306.83, -2678, 1095, 33926
49000, 1, 5, 59.9639090, 10.7260400, 0, 248.96, 234.23, 16.06, 306.83, -2975, 1067, 33586
49100, 1, 5, 59.9639430, 10.7259710, 0, 249.3, 234.88, 15.7, 306.1, -3284, 1006, 33225
49200, 1, 5, 59.9639430, 10.7259710, 0, 249.57, 234.88, 15.7, 306.1, -3570, 998, 32876
49300, 1, 5, 59.9639430, 10.7259710, 0, 249.83, 234.88, 15.7, 306.1, -3813, 996, 32556
49400, 1, 5, 59.9639630, 10.7259080, 0, 250.18, 235.25, 15.4, 303.99, -3933, 1037, 32277
49500, 1, 5, 59.9639630, 10.7259080, 0, 250.52, 235.25, 15.4, 303.99, -3997, 1049, 32019
49600, 1, 5, 59.9639850, 10.7258410, 0, 250.78, 235.79, 15.25, 302.2, -4139, 1009, 31717
49700, 1, 5, 59.9639850, 10.7258410, 0, 251.05, 235.79, 15.25, 302.2, -4187, 960, 31411
49800, 1, 5, 59.9639850, 10.7258410, 0, 251.31, 235.79, 15.25, 302.2, -4276, 850, 31067
49900, 1, 5, 59.9640050, 10.7257750, 0, 251.66, 236.37, 15.27, 299.28, -4323, 790, 30715
50000, 1, 5, 59.9640050, 10.7257750, 0, 251.92, 236.37, 15.27, 299.28, -4395, 675, 30345
50100, 1, 5, 59.9640270, 10.7257080, 0, 252.27, 237.08, 15.35, 296.92, -4449, 605, 29985
50200, 1, 5, 59.9640270, 10.7257080, 0, 252.53, 237.08, 15.35, 296.92, -4471, 526, 29644
50300, 1, 5, 59.9640270, 10.7257080, 0, 252.79, 237.08, 15.35, 296.92, -4373, 544, 29289
50400, 1, 5, 59.9640390, 10.7256450, 0, 253.05, 237.7, 15.54, 293.77, -4055, 519, 28972
50500, 1, 5, 59.9640390, 10.7256450, 0, 253.31, 237.7, 15.54, 293.77, -3748, 482, 28647
50600, 1, 5, 59.9640460, 10.7255810, 0, 253.57, 238.12, 15.66, 289.7, -3461, 452, 28328
50700, 1, 5, 59.9640460, 10.7255810, 0, 253.83, 238.12, 15.66, 289.7, -3098, 411, 28021
50800, 1, 5, 59.9640460, 10.7255810, 0, 254.1, 238.12, 15.66, 289.7, -2679, 440, 27727
50900, 1, 5, 59.9640660, 10.7255160, 0, 254.18, 238.55, 15.69, 289.85, -2263, 488, 27470
51000, 1, 5, 59.9640660, 10.7255160, 0, 254.45, 238.55, 15.69, 289.85, -1901, 530, 27250
51100, 1, 5, 59.9640770, 10.7254500, 0, 254.53, 237.49, 15.34, 289.2, -1581, 682, 27036
51200, 1, 5, 59.9640770, 10.7254500, 0, 254.62, 237.49, 15.34, 289.2, -1409, 715, 26842
51300, 1, 5, 59.9640770, 10.7254500, 0, 254.71, 237.49, 15.34, 289.2, -1349, 847, 26660
51400, 1, 5, 59.9640850, 10.7253860, 0, 254.88, 237.77, 15.24, 284.93, -1452, 957, 26482
51500, 1, 5, 59.9640850, 10.7253860, 0, 255.06, 237.77, 15.24, 284.93, -1510, 1084, 26319
51600, 1, 5, 59.9640850, 10.7253230, 0, 255.32, 238.01, 15, 279.94, -1608, 1178, 26112
51700, 1, 5, 59.9640850, 10.7253230, 0, 255.49, 238.01, 15, 279.94, -1859, 1352, 25828
51800, 1, 5, 59.9640850, 10.7253230, 0, 255.67, 238.01, 15, 279.94, -2224, 1475, 25466
51900, 1, 5, 59.9640850, 10.7252510, 0, 255.93, 237.68, 14.72, 274.83, -2561, 1517, 25069
52000, 1, 5, 59.9640850, 10.7252510, 0, 256.01, 237.68, 14.72, 274.83, -2899, 1621, 24656
52100, 1, 5, 59.9640850, 10.7251810, 0, 256.28, 238.08, 14.71, 270.4, -3233, 1656, 24247
52200, 1, 5, 59.9640850, 10.7251810, 0, 256.54, 238.08, 14.71, 270.4, -3527, 1732, 23865
52300, 1, 5, 59.9640850, 10.7251810, 0, 256.71, 238.08, 14.71, 270.4, -3819, 1733, 23489
52400, 1, 5, 59.9640690, 10.7251200, 0, 256.97, 238.42, 14.58, 264.3, -4043, 1693, 23120
52500, 1, 5, 59.9640690, 10.7251200, 0, 257.23, 238.42, 14.58, 264.3, -4158, 1595, 22756
52600, 1, 5, 59.9640580, 10.7250560, 0, 257.58, 238.31, 14.36, 259.52, -4244, 1514, 22366
52700, 1, 5, 59.9640580, 10.7250560, 0, 257.85, 238.31, 14.36, 259.52, -4161, 1480, 21989
52800, 1, 5, 59.9640580, 10.7250560, 0, 258.19, 238.31, 14.36, 259.52, -4078, 1382, 21610
52900, 1, 5, 59.9640390, 10.7249980, 0, 258.45, 238.64, 14.27, 252.97, -4208, 1417, 21194
53000, 1, 5, 59.9640390, 10.7249980, 0, 258.72, 238.64, 14.27, 252.97, -4365, 1330, 20858
53100, 1, 5, 59.9640270, 10.7249480, 0, 258.98, 238.91, 13.93, 248.41, -4379, 1329, 20529
53200, 1, 5, 59.9640270, 10.7249480, 0, 259.24, 238.91, 13.93, 248.41, -4193, 1298, 20252
53300, 1, 5, 59.9640270, 10.7249480, 0, 259.5, 238.91, 13.93, 248.41, -3778, 1108, 20029
53400, 1, 5, 59.9640050, 10.7249010, 0, 259.68, 239.35, 13.59, 243.73, -3295, 995, 19791
53500, 1, 5, 59.9640050, 10.7249010, 0, 259.76, 239.35, 13.59, 243.73, -2803, 818, 19564
53600, 1, 5, 59.9639850, 10.7248600, 0, 259.94, 239.72, 13.3, 239.37, -2313, 750, 19343
53700, 1, 5, 59.9639850, 10.7248600, 0, 260.11, 239.72, 13.3, 239.37, -1972, 590, 19176
53800, 1, 5, 59.9639850, 10.7248600, 0, 260.29, 239.72, 13.3, 239.37, -1615, 477, 19060
53900, 1, 5, 59.9639550, 10.7248280, 0, 260.46, 240.09, 13.01, 235.18, -1145, 337, 18977
54000, 1, 5, 59.9639550, 10.7248280, 0, 260.46, 240.09, 13.01, 235.18, -620, 263, 18922
54100, 1, 5, 59.9639280, 10.7247920, 0, 260.46, 240.44, 13.03, 233.22, -135, 156, 18876
54200, 1, 5, 59.9639280, 10.7247920, 0, 260.46, 240.44, 13.03, 233.22, 324, -53, 18817
54300, 1, 5, 59.9639280, 10.7247920, 0, 260.46, 240.44, 13.03, 233.22, 718, -113, 18784
54400, 1, 5, 59.9639090, 10.7247600, 0, 260.37, 240.83, 12.79, 232.6, 874, -50, 18796
54500, 1, 5, 59.9639090, 10.7247600, 0, 260.37, 240.83, 12.79, 232.6, 807, 86, 18842
54600, 1, 5, 59.9638900, 10.7247320, 0, 260.37, 241.23, 12.05, 232.5, 508, 219, 18878
54700, 1, 5, 59.9638900, 10.7247320, 0, 260.37, 241.23, 12.05, 232.5, 58, 428, 18887
54800, 1, 5, 59.9638900, 10.7247320, 0, 260.29, 241.23, 12.05, 232.5, -446, 600, 18830
54900, 1, 5, 59.9638670, 10.7247060, 0, 260.2, 241.66, 11.45, 231.79, -755, 566, 18718
55000, 1, 5, 59.9638670, 10.7247060, 0, 260.2, 241.66, 11.45, 231.79, -830, 556, 18544
55100, 1, 5, 59.9638290, 10.7247010, 0, 260.03, 242.05, 10.68, 225.07, -835, 527, 18352
55200, 1, 5, 59.9638290, 10.7247010, 0, 259.85, 242.05, 10.68, 225.07, -840, 514, 18196
55300, 1, 5, 59.9638290, 10.7247010, 0, 259.68, 242.05, 10.68, 225.07, -786, 484, 18112
55400, 1, 5, 59.9637950, 10.7246910, 0, 259.33, 242.38, 10.43, 220, -661, 444, 18091
55500, 1, 5, 59.9637950, 10.7246910, 0, 259.07, 242.38, 10.43, 220, -511, 434, 18110
55600, 1, 5, 59.9637640, 10.7246810, 0, 258.8, 242.77, 10.46, 215.12, -374, 380, 18137
55700, 1, 5, 59.9637640, 10.7246810, 0, 258.63, 242.77, 10.46, 215.12, -288, 308, 18140
55800, 1, 5, 59.9637640, 10.7246810, 0, 258.45, 242.77, 10.46, 215.12, -259, 248, 18102
55900, 1, 5, 59.9637180, 10.7246810, 0, 258.11, 243.24, 10.64, 210.12, -154, 354, 18041
56000, 1, 5, 59.9637180, 10.7246810, 0, 258.11, 243.24, 10.64, 210.12, -158, 423, 17963
56100, 1, 5, 59.9636730, 10.7246800, 0, 257.93, 243.66, 10.97, 206.28, -204, 500, 17897
56200, 1, 5, 59.9636730, 10.7246800, 0, 257.67, 243.66, 10.97, 206.28, -124, 486, 17866
56300, 1, 5, 59.9636730, 10.7246800, 0, 257.5, 243.66, 10.97, 206.28, -22, 401, 17858
56400, 1, 5, 59.9636310, 10.7246780, 0, 257.23, 244.08, 11.29, 202.78, 129, 439, 17869
56500, 1, 5, 59.9636310, 10.7246780, 0, 257.15, 244.08, 11.29, 202.78, 266, 456, 17894
56600, 1, 5, 59.9635770, 10.7246700, 0, 257.06, 244.46, 11.76, 200.28, 398, 410, 17916
56700, 1, 5, 59.9635770, 10.7246700, 0, 256.97, 244.46, 11.76, 200.28, 589, 432, 17937
56800, 1, 5, 59.9635770, 10.7246700, 0, 256.8, 244.46, 11.76, 200.28, 743, 423, 17966
56900, 1, 5, 59.9635310, 10.7246580, 0, 256.62, 244.83, 12.28, 198.57, 902, 456, 18041
57000, 1, 5, 59.9635310, 10.7246580, 0, 256.54, 244.83, 12.28, 198.57, 1033, 441, 18125
57100, 1, 5, 59.9634900, 10.7246450, 0, 256.62, 245.31, 12.93, 196.99, 1088, 369, 18188
57200, 1, 5, 59.9634900, 10.7246450, 0, 256.54, 245.31, 12.93, 196.99, 1124, 343, 18240
57300, 1, 5, 59.9634900, 10.7246450, 0, 256.36, 245.31, 12.93, 196.99, 1142, 327, 18310
57400, 1, 5, 59.9634440, 10.7246260, 0, 256.36, 245.4, 13.63, 195.82, 1167, 311, 18418
57500, 1, 5, 59.9634440, 10.7246260, 0, 256.45, 245.4, 13.63, 195.82, 1157, 246, 18521
57600, 1, 5, 59.9633410, 10.7246010, 0, 256.54, 244.48, 17.19, 194.3, 1222, 179, 18633
57700, 1, 5, 59.9633410, 10.7246010, 0, 256.62, 244.48, 17.19, 194.3, 1290, 74, 18743
57800, 1, 5, 59.9633410, 10.7246010, 0, 256.71, 244.48, 17.19, 194.3, 1335, -2, 18853
57900, 1, 5, 59.9632720, 10.7245710, 0, 256.8, 244.2, 18.99, 194.11, 1378, -104, 18944
58000, 1, 5, 59.9632720, 10.7245710, 0, 256.89, 244.2, 18.99, 194.11, 1428, -191, 19034
58100, 1, 5, 59.9632000, 10.7245410, 0, 256.8, 244.15, 20.06, 194.4, 1440, -232, 19130
58200, 1, 5, 59.9632000, 10.7245410, 0, 256.89, 244.15, 20.06, 194.4, 1424, -316, 19210
58300, 1, 5, 59.9632000, 10.7245410, 0, 257.06, 244.15, 20.06, 194.4, 1565, -348, 19316
58400, 1, 5, 59.9631420, 10.7245110, 0, 257.23, 244.24, 20.67, 195.07, 1633, -451, 19402
58500, 1, 5, 59.9631420, 10.7245110, 0, 257.41, 244.24, 20.67, 195.07, 1770, -518, 19529
58600, 1, 5, 59.9630930, 10.7244800, 0, 257.58, 244.49, 21.14, 195.69, 1713, -517, 19683
58700, 1, 5, 59.9630930, 10.7244800, 0, 257.85, 244.49, 21.14, 195.69, 1593, -543, 19825
58800, 1, 5, 59.9630930, 10.7244800, 0, 258.11, 244.49, 21.14, 195.69, 1524, -527, 19948
58900, 1, 5, 59.9630320, 10.7244480, 0, 258.37, 244.87, 21.44, 196.9, 1199, -414, 20005
59000, 1, 5, 59.9630320, 10.7244480, 0, 258.54, 244.87, 21.44, 196.9, 800, -309, 20009
59100, 1, 5, 59.9629900, 10.7244150, 0, 258.89, 245.33, 21.55, 198.05, 412, -214, 19986
59200, 1, 5, 59.9629900, 10.7244150, 0, 259.15, 245.33, 21.55, 198.05, 142, -165, 19956
59300, 1, 5, 59.9629900, 10.7244150, 0, 259.5, 245.33, 21.55, 198.05, -55, -116, 19937
59400, 1, 5, 59.9629440, 10.7243800, 0, 259.76, 245.92, 21.41, 199.62, -181, -74, 19917
59500, 1, 5, 59.9629440, 10.7243800, 0, 260.11, 245.92, 21.41, 199.62, -297, -81, 19896
59600, 1, 5, 59.9629060, 10.7243400, 0, 260.37, 246.27, 21.14, 201.17, -410, -4, 19880
59700, 1, 5, 59.9629060, 10.7243400, 0, 260.64, 246.27, 21.14, 201.17, -531, 10, 19866
59800, 1, 5, 59.9629060, 10.7243400, 0, 260.98, 246.27, 21.14, 201.17, -572, 29, 19848
59900, 1, 5, 59.9628680, 10.7242960, 0, 261.42, 246.58, 21.11, 203.03, -559, -89, 19812
60000, 1, 5, 59.9628680, 10.7242960, 0, 261.77, 246.58, 21.11, 203.03, -529, -142, 19763
60100, 1, 5, 59.9628680, 10.7242960, 0, 262.03, 246.58, 21.11, 203.03, -547, -287, 19723
60200, 1, 5, 59.9628300, 10.7242510, 0, 262.56, 247.04, 20.01, 204.5, -498, -398, 19701
60300, 1, 5, 59.9628300, 10.7242510, 0, 262.9, 247.04, 20.01, 204.5, -465, -475, 19694
60400, 1, 5, 59.9627910, 10.7242110, 0, 263.17, 247.43, 19.71, 204.87, -304, -459, 19696
60500, 1, 5, 59.9627910, 10.7242110, 0, 263.51, 247.43, 19.71, 204.87, -87, -501, 19716
60600, 1, 5, 59.9627910, 10.7242110, 0, 263.78, 247.43, 19.71, 204.87, -16, -472, 19743
60700, 1, 5, 59.9627460, 10.7241730, 0, 264.04, 247.81, 19.36, 205.49, -83, -376, 19765
60800, 1, 5, 59.9627460, 10.7241730, 0, 264.39, 247.81, 19.36, 205.49, -183, -343, 19820
60900, 1, 5, 59.9627080, 10.7241330, 0, 264.65, 248.16, 19.06, 206.39, -135, -271, 19885
61000, 1, 5, 59.9627080, 10.7241330, 0, 264.91, 248.16, 19.06, 206.39, -27, -301, 19923
61100, 1, 5, 59.9627080, 10.7241330, 0, 265.17, 248.16, 19.06, 206.39, -50, -193, 19919
61200, 1, 5, 59.9626620, 10.7240950, 0, 265.35, 248.33, 18.98, 206.92, -277, -165, 19873
61300, 1, 5, 59.9626620, 10.7240950, 0, 265.61, 248.33, 18.98, 206.92, -657, -130, 19805
61400, 1, 5, 59.9626240, 10.7240570, 0, 265.87, 248.71, 18.87, 207.54, -1182, -213, 19763
61500, 1, 5, 59.9626240, 10.7240570, 0, 266.13, 248.71, 18.87, 207.54, -1464, -241, 19747
61600, 1, 5, 59.9626240, 10.7240570, 0, 266.31, 248.71, 18.87, 207.54, -1693, -326, 19682
61700, 1, 5, 59.9625780, 10.7240210, 0, 266.48, 249.17, 18.84, 208.17, -1908, -390, 19561
61800, 1, 5, 59.9625780, 10.7240210, 0, 266.57, 249.17, 18.84, 208.17, -2194, -393, 19390
61900, 1, 5, 59.9625400, 10.7239880, 0, 266.66, 249.65, 18.68, 208.43, -2321, -369, 19209
62000, 1, 5, 59.9625400, 10.7239880, 0, 266.83, 249.65, 18.68, 208.43, -2383, -392, 19073
62100, 1, 5, 59.9625400, 10.7239880, 0, 267.01, 249.65, 18.68, 208.43, -2285, -283, 18939
62200, 1, 5, 59.9624980, 10.7239500, 0, 267.09, 250.22, 18.8, 207.02, -2198, -241, 18816
62300, 1, 5, 59.9624980, 10.7239500, 0, 267.27, 250.22, 18.8, 207.02, -2095, -282, 18717
62400, 1, 5, 59.9624560, 10.7239150, 0, 267.44, 250.35, 18.49, 205.83, -1996, -269, 18634
62500, 1, 5, 59.9624560, 10.7239150, 0, 267.53, 250.35, 18.49, 205.83, -1946, -285, 18563
62600, 1, 5, 59.9624560, 10.7239150, 0, 267.62, 250.35, 18.49, 205.83, -1892, -222, 18491
62700, 1, 5, 59.9624140, 10.7238860, 0, 267.62, 250.73, 18.46, 204.8, -1891, -188, 18425
62800, 1, 5, 59.9624140, 10.7238860, 0, 267.79, 250.73, 18.46, 204.8, -1870, -117, 18351
62900, 1, 5, 59.9623600, 10.7238580, 0, 267.88, 251.27, 18.21, 203.98, -1917, -20, 18253
63000, 1, 5, 59.9623600, 10.7238580, 0, 268.05, 251.27, 18.21, 203.98, -1947, 107, 18147
63100, 1, 5, 59.9623600, 10.7238580, 0, 268.14, 251.27, 18.21, 203.98, -2028, 227, 18039
63200, 1, 5, 59.9623180, 10.7238300, 0, 268.23, 251.63, 18.12, 201.67, -2050, 322, 17921
63300, 1, 5, 59.9623180, 10.7238300, 0, 268.32, 251.63, 18.12, 201.67, -2099, 393, 17784
63400, 1, 5, 59.9622650, 10.7238040, 0, 268.49, 252.19, 18.47, 198.89, -2096, 452, 17651
63500, 1, 5, 59.9622650, 10.7238040, 0, 268.66, 252.19, 18.47, 198.89, -2042, 393, 17540
63600, 1, 5, 59.9622650, 10.7238040, 0, 268.75, 252.19, 18.47, 198.89, -2026, 458, 17402
63700, 1, 5, 59.9622150, 10.7237880, 0, 268.84, 252.64, 18.6, 196.24, -2022, 454, 17282
63800, 1, 5, 59.9622150, 10.7237880, 0, 269.01, 252.64, 18.6, 196.24, -1995, 515, 17175
63900, 1, 5, 59.9621620, 10.7237750, 0, 269.19, 253.1, 19, 194, -2009, 523, 17078
64000, 1, 5, 59.9621620, 10.7237750, 0, 269.36, 253.1, 19, 194, -2031, 576, 16998
64100, 1, 5, 59.9621620, 10.7237750, 0, 269.45, 253.1, 19, 194, -2042, 583, 16919
64200, 1, 5, 59.9621120, 10.7237640, 0, 269.54, 253.35, 19.36, 191.4, -2104, 665, 16814
64300, 1, 5, 59.9621120, 10.7237640, 0, 269.8, 253.35, 19.36, 191.4, -2280, 723, 16659
64400, 1, 5, 59.9620670, 10.7237560, 0, 269.97, 253.61, 19.12, 188.68, -2498, 838, 16471
64500, 1, 5, 59.9620670, 10.7237560, 0, 270.15, 253.61, 19.12, 188.68, -2786, 866, 16266
64600, 1, 5, 59.9620670, 10.7237560, 0, 270.41, 253.61, 19.12, 188.68, -2988, 896, 16080
64700, 1, 5, 59.9620210, 10.7237430, 0, 270.67, 253.9, 18.72, 186.65, -3156, 864, 15891
64800, 1, 5, 59.9620210, 10.7237430, 0, 270.85, 253.9, 18.72, 186.65, -3212, 893, 15698
64900, 1, 5, 59.9619790, 10.7237430, 0, 271.11, 254.11, 18.57, 183.6, -3301, 868, 15484
65000, 1, 5, 59.9619790, 10.7237430, 0, 271.28, 254.11, 18.57, 183.6, -3203, 863, 15307
65100, 1, 5, 59.9619790, 10.7237430, 0, 271.46, 254.11, 18.57, 183.6, -2988, 785, 15157
65200, 1, 5, 59.9619330, 10.7237500, 0, 271.63, 254.28, 18.67, 179.74, -2753, 827, 14995
65300, 1, 5, 59.9619330, 10.7237500, 0, 271.89, 254.28, 18.67, 179.74, -2492, 772, 14880
65400, 1, 5, 59.9618870, 10.7237550, 0, 272.16, 254.45, 18.77, 177.07, -2179, 795, 14797
65500, 1, 5, 59.9618870, 10.7237550, 0, 272.42, 254.45, 18.77, 177.07, -1828, 784, 14748
65600, 1, 5, 59.9618870, 10.7237550, 0, 272.68, 254.45, 18.77, 177.07, -1521, 807, 14713
65700, 1, 5, 59.9618420, 10.7237680, 0, 272.94, 254.6, 18.75, 174.33, -1271, 836, 14701
65800, 1, 5, 59.9618420, 10.7237680, 0, 273.29, 254.6, 18.75, 174.33, -1127, 873, 14658
65900, 1, 5, 59.9618030, 10.7237850, 0, 273.55, 254.7, 18.26, 170.13, -1055, 970, 14602
66000, 1, 5, 59.9618030, 10.7237850, 0, 273.82, 254.7, 18.26, 170.13, -1129, 1055, 14511
66100, 1, 5, 59.9618030, 10.7237850, 0, 274.08, 254.7, 18.26, 170.13, -1292, 1160, 14403
66200, 1, 5, 59.9617730, 10.7238110, 0, 274.34, 254.68, 18.42, 166.52, -1641, 1372, 14258
66300, 1, 5, 59.9617730, 10.7238110, 0, 274.52, 254.68, 18.42, 166.52, -1959, 1488, 14124
66400, 1, 5, 59.9617350, 10.7238410, 0, 274.87, 254.72, 18.33, 163.67, -2292, 1592, 13952
66500, 1, 5, 59.9617350, 10.7238410, 0, 275.13, 254.72, 18.33, 163.67, -2522, 1683, 13766
66600, 1, 5, 59.9617350, 10.7238410, 0, 275.48, 254.72, 18.33, 163.67, -2823, 1719, 13517
66700, 1, 5, 59.9616970, 10.7238710, 0, 275.91, 254.81, 18.3, 161.2, -3090, 1703, 13274
66800, 1, 5, 59.9616970, 10.7238710, 0, 276.26, 254.81, 18.3, 161.2, -3361, 1659, 13036
66900, 1, 5, 59.9616580, 10.7239050, 0, 276.61, 255.03, 18.26, 158.27, -3618, 1687, 12813
67000, 1, 5, 59.9616580, 10.7239050, 0, 276.96, 255.03, 18.26, 158.27, -3900, 1692, 12585
67100, 1, 5, 59.9616580, 10.7239050, 0, 277.4, 255.03, 18.26, 158.27, -4165, 1671, 12371
67200, 1, 5, 59.9616240, 10.7239430, 0, 277.75, 255.26, 17.8, 155.6, -4525, 1667, 12074
67300, 1, 5, 59.9616240, 10.7239430, 0, 278.1, 255.26, 17.8, 155.6, -4825, 1628, 11782
67400, 1, 5, 59.9615940, 10.7239860, 0, 278.45, 255.47, 17.67, 152.4, -5134, 1579, 11459
67500, 1, 5, 59.9615940, 10.7239860, 0, 278.88, 255.47, 17.67, 152.4, -5407, 1494, 11137
67600, 1, 5, 59.9615940, 10.7239860, 0, 279.23, 255.47, 17.67, 152.4, -5703, 1371, 10794
67700, 1, 5, 59.9615630, 10.7240360, 0, 279.58, 255.72, 17.47, 148.16, -5997, 1228, 10430
67800, 1, 5, 59.9615630, 10.7240360, 0, 279.93, 255.72, 17.47, 148.16, -6267, 1077, 10095
67900, 1, 5, 59.9615360, 10.7240920, 0, 280.28, 255.95, 17.24, 142.97, -6528, 908, 9775
68000, 1, 5, 59.9615360, 10.7240920, 0, 280.55, 255.95, 17.24, 142.97, -6777, 758, 9432
68100, 1, 5, 59.9615360, 10.7240920, 0, 280.81, 255.95, 17.24, 142.97, -6843, 554, 9169
68200, 1, 5, 59.9615060, 10.7241520, 0, 281.07, 256.21, 17.22, 138.13, -6793, 301, 8935
68300, 1, 5, 59.9615060, 10.7241520, 0, 281.25, 256.21, 17.22, 138.13, -6414, 35, 8857
68400, 1, 5, 59.9614830, 10.7242130, 0, 281.42, 256.39, 16.78, 132.77, -5903, -177, 8744
68500, 1, 5, 59.9614830, 10.7242130, 0, 281.42, 256.39, 16.78, 132.77, -5301, -376, 8644
68600, 1, 5, 59.9614830, 10.7242130, 0, 281.51, 256.39, 16.78, 132.77, -4626, -524, 8574
68700, 1, 5, 59.9614720, 10.7242760, 0, 281.51, 256.48, 16.46, 128.83, -3965, -707, 8508
68800, 1, 5, 59.9614720, 10.7242760, 0, 281.42, 256.48, 16.46, 128.83, -3282, -832, 8468
68900, 1, 5, 59.9614640, 10.7243400, 0, 281.42, 256.54, 15.73, 122.52, -2566, -893, 8453
